시도,시군구,어린이집명,어린이집유형구분,운영현황,우편번호,주소,어린이집전화번호,어린이집팩스번호,보육실수,보육실면적,놀이터수,CCTV설치수,보육교직원수,정원수,현원수,lat,long,통학차량운영여부,홈페이지주소,인가일자,휴지시작일자,휴지종료일자,폐지일자
서울특별시,종로구,삼청어린이집,국공립,정상,3049.0,서울특별시 종로구 삼청로7길 26 (팔판동),02-723-0155,02-723-0155,3,68,0,7,8,32,17,37.58400574,126.9804875,미운영,http://cafe.naver.com/samchung1004,1999-09-01,,,
서울특별시,종로구,창신어린이집,사회복지법인,정상,3105.0,서울특별시 종로구 창신5길 22 (창신동),02-743-6302,02-743-6302,4,300,1,8,8,77,27,37.57360468,127.0120168,미운영,http://changsin.ukid.kr,1978-12-01,,,
서울특별시,종로구,아동회관어린이집,국공립,정상,3094.0,서울특별시 종로구 지봉로13길 14 아동회관어린이집,02-763-6038,050-5845-6038,6,215,1,16,10,65,37,37.57830726,127.0118098,미운영,,1988-10-01,,,
서울특별시,종로구,부암어린이집,국공립,정상,3019.0,서울특별시 종로구 세검정로6다길 10-7 ,02-396-6226,02-396-6227,5,302,3,10,26,92,83,37.60152236,126.9630733,미운영,https://buarm.kidsnote.ac,1998-07-29,,,
서울특별시,종로구,낙산어린이집,국공립,정상,3091.0,서울특별시 종로구 창신길 210-11 낙산어린이집 (창신동),02-765-1268,02-765-1268,5,301,1,13,10,52,17,37.57952972,127.0101667,미운영,http://children.seoul.go.kr,1981-10-13,,,
서울특별시,종로구,한빛어린이집,국공립,정상,3112.0,서울특별시 종로구 종로65길 10 (숭인동),02-763-6825,02-763-6825,4,119,1,7,8,44,16,37.57485743,127.0199441,미운영,,1993-03-02,,,
서울특별시,종로구,세종마을어린이집,국공립,정상,3034.0,서울특별시 종로구 옥인길 89 (옥인동),02-732-3070,02-732-3072,4,109,1,8,17,50,44,37.58195218,126.9639188,미운영,http://cafe.daum.net/loveohkin,1987-10-20,,,
서울특별시,종로구,조은어린이집,국공립,정상,3109.0,서울특별시 종로구 지봉로12가길 35 (숭인동),02-763-7800,02-763-7800,6,182,1,12,15,49,25,37.57564181,127.0169677,미운영,http://club.cyworld.com/clubV1/Home.cy/51956107,1991-07-12,,,
서울특별시,종로구,누상어린이집,국공립,정상,3037.0,서울특별시 종로구 옥인길 23-4 (누상동),02-738-6711,02-2138-0114,5,117,0,9,10,49,20,37.58079240057926,126.9671957747272,미운영,,1982-08-02,,,
서울특별시,종로구,무악어린이집,국공립,정상,3024.0,서울특별시 종로구 통일로18길 64 (무악동),02-736-8003,050-5899-8009,7,279,1,16,12,96,38,37.57607379,126.9603255,운영,https://mooac.kidsnote.ac/home/main,1981-10-10,,,
서울특별시,종로구,은행나무어린이집,국공립,정상,3091.0,서울특별시 종로구 낙산5길 33 (창신동),02-744-5420,--,9,675,1,32,13,97,34,37.57895144,127.010942,미운영,,1991-03-02,,,
서울특별시,종로구,가회어린이집,국공립,정상,3056.0,서울특별시 종로구 북촌로12길 12-2 가회어린이집 (가회동),02-3673-2085,02-3673-5797,5,105,1,8,8,39,20,37.58180502,126.9858807,미운영,http:// cafe.naver.com/ gh2085,1995-06-23,,,
서울특별시,종로구,상록수어린이집,국공립,정상,3166.0,서울특별시 종로구 송월1길 73-7 상록수어린이집,02-738-1773,02-725-3447,8,300,1,22,17,112,68,37.5727619906,126.9646047637,미운영,http://cafe.daum.net/sangroksukids,1983-09-01,,,
서울특별시,종로구,혜화어린이집,국공립,정상,3084.0,서울특별시 종로구 대학로14길 34 ,02-742-2694,02-744-2694,5,179,1,22,12,64,44,37.58477571854032,127.0025360774734,미운영,,1982-12-28,,,
서울특별시,종로구,인왕어린이집,국공립,정상,3024.0,서울특별시 종로구 통일로18길 9 인왕산 아이파크단지내,02-738-8577,02-738-8538,5,377,3,12,11,79,37,37.57705710065089,126.95731990254116,미운영,https://iwec8577.kidsnote.ac,1982-05-19,,,
서울특별시,종로구,청운어린이집,국공립,정상,3031.0,서울특별시 종로구 자하문로35길 21 ,02-730-9261,02-736-9260,5,230,0,7,13,71,48,37.58408282,126.9705784,미운영,http://chungunkids.kr,1983-10-01,,,
서울특별시,종로구,사직어린이집,국공립,정상,3039.0,서울특별시 종로구 필운대로1길 16-8 ,02-720-0798,02-720-0797,6,316,1,18,12,101,33,37.57809877,126.9686864,미운영,,1996-10-02,,,
서울특별시,종로구,종로구청직장어린이집,직장,정상,3152.0,서울특별시 종로구 종로1길 36 대림빌딩,02-720-5852,02-725-5852,3,100,0,16,10,35,25,37.5734646273137,126.97914844618096,미운영,http://www.puruni.com/jr,1998-03-02,,,
서울특별시,종로구,숭인어린이집,국공립,정상,3108.0,서울특별시 종로구 지봉로 86 (숭인동),02-743-7527,02-743-7528,4,329,1,9,12,52,44,37.57781735,127.0156145,미운영,,1998-03-16,,,
서울특별시,종로구,초동어린이집,법인·단체등,정상,3139.0,서울특별시 종로구 돈화문로5가길 23 (돈의동),02-765-6205,02-765-6202,5,156,0,8,7,49,16,37.57174148,126.9912585,미운영,chodong.or.kr,1996-03-26,,,
서울특별시,종로구,명륜어린이집,국공립,정상,3065.0,서울특별시 종로구 성균관로13길 66 (명륜1가),02-742-8436,02-743-3757,8,318,1,20,24,90,84,37.59133111,126.9949822,운영,https://mrec8436.kidsnote.ac,1984-11-30,,,
서울특별시,종로구,창신제일어린이집,국공립,정상,3089.0,서울특별시 종로구 낙산성곽동길 69 창신동,02-3675-1084,02-762-9987,4,110,1,8,7,39,16,37.57568463,127.0096935,미운영,,2014-02-01,,,
서울특별시,종로구,종교교회어린이집,민간,정상,3173.0,서울특별시 종로구 사직로8길 48 종교교회내 1층 (도렴동),02-6322-2190,--,4,159,1,8,12,41,30,37.57375117,126.973844,미운영,www.chongkyokids.com,2001-10-22,,,
서울특별시,종로구,엄마품어린이집,가정,정상,3010.0,"서울특별시 종로구 평창문화로 172 102동 106호(평창동, 삼성아파트)",02-379-1317,02-379-1347,3,84,1,4,3,19,4,37.61035089,126.9744434,미운영,,2006-05-18,,,
서울특별시,종로구,다솔 방과후교실,민간,정상,3180.0,서울특별시 종로구 통일로8길 16 (송월동),02-722-5011,02-722-5011,3,408,0,5,7,39,39,37.56926643,126.9654484,운영,,2006-03-13,,,
서울특별시,종로구,서울청사한빛어린이집,직장,정상,3171.0,서울특별시 종로구 세종대로 209 서울청사관리소,02-735-6400,02-735-8819,17,1418,4,54,34,249,82,37.57499554246283,126.97514063547618,미운영,https://hanbit.kidsnote.ac,2005-03-15,,,
서울특별시,종로구,서울대학교병원어린이집,직장,정상,3085.0,서울특별시 종로구 동숭3길 40 ,02-2072-2260,02-2072-4094,4,149,1,22,18,54,34,37.57946548,126.9990227,운영,,1995-03-01,,,
서울특별시,종로구,안동어린이집,민간,정상,3055.0,서울특별시 종로구 북촌로7길 3-10 ,02-743-9307,02-766-9307,5,185,1,7,8,49,26,37.5798836,126.9843648,미운영,,1991-12-07,,,
서울특별시,종로구,SK행복어린이집,직장,정상,3188.0,서울특별시 종로구 종로 26 SK서린동빌딩 2층,02-2121-1611,02-2121-1610,7,364,1,16,30,99,91,37.56967307,126.980289,미운영,www.puruni.com/skseoul,2007-09-14,,,
서울특별시,종로구,KT혜화 어린이집,직장,정상,3082.0,서울특별시 종로구 대학로 65 (연건동),02-3676-9300,02-3676-9301,4,198,0,5,6,49,8,37.57700048,127.0042702,미운영,,2008-02-28,,,
서울특별시,종로구,서울청사푸르미어린이집,직장,정상,3171.0,서울특별시 종로구 세종로 세종대로 209 서울청사 푸르미어린이집,02-737-7327,02-737-7329,9,544,2,25,29,206,68,37.57529731027255,126.9748320559236,미운영,purumicc.co.kr,2009-08-26,,,
서울특별시,종로구,무궁화어린이집,직장,정상,3047.0,서울특별시 종로구 자하문로28길 8 외 1 (궁정동),02-730-2486,02-730-6486,16,764,4,92,36,160,83,37.58479164,126.9710612,미운영,,2016-02-22,,,
서울특별시,종로구,대학로어린이집,국공립,정상,3088.0,서울특별시 종로구 이화장길 86-22 ,02-741-0323,02-741-0391,4,122,1,8,10,45,24,37.57933439,127.0054732,미운영,,2010-02-08,,,
서울특별시,종로구,kids-sure어린이집,직장,정상,3187.0,서울특별시 종로구 종로 14 (서린동),02-723-1272,02-725-1272,4,240,2,16,17,69,40,37.570421002869445,126.98627649387804,미운영,www.puruni.com/ksure,2012-06-25,,,
서울특별시,종로구,미래나무어린이집,직장,정상,3129.0,서울특별시 종로구 종로33길 15 (연지동),02-747-9557,02-747-9558,3,216,2,14,10,49,21,37.57181311108567,127.00100090217316,미운영,,2012-08-27,,,
서울특별시,종로구,교보생명다솜이어린이집,직장,정상,3176.0,서울특별시 종로구 신문로2가 경희궁1가길 3 ,02-722-2012,02-725-2015,4,177,2,12,14,65,29,37.57206775576062,126.96937301306512,미운영,www.puruni.com,2012-12-27,,,
서울특별시,종로구,KIM&CHANG 어린이집,직장,정상,3175.0,서울특별시 종로구 신문로2가 경희궁길 26 썬타워빌딩 1층,02-738-6901,02-738-6903,3,164,1,11,16,49,40,37.57227407463736,126.97098987226796,미운영,,2013-02-22,,,
서울특별시,종로구,아이소리어린이집,가정,정상,3104.0,"서울특별시 종로구 지봉로5길 7 103-101(창신동,두산아파트)",02-3672-5011,02-3672-5011,4,65,0,4,7,20,20,37.57407935499962,127.01383331012804,미운영,,2013-03-21,,,
서울특별시,종로구,SK ecoplant 행복날개어린이집,직장,정상,3143.0,서울특별시 종로구 율곡로2길 19 SK ecoplant 행복날개어린이집,02-6395-0202,02-6395-0203,4,177,1,16,13,49,26,37.57443353268173,126.98114619280256,미운영,www.puruni.com/skec,2013-08-27,,,
서울특별시,종로구,현대다솜어린이집,직장,정상,3058.0,서울특별시 종로구 창덕궁길 19 현대다솜어린이집,02-746-7601,02-746-7602,3,244,1,14,14,49,36,37.57823397808198,126.98856600832882,미운영,,2013-08-27,,,
서울특별시,종로구,구기어린이집,민간,정상,3012.0,서울특별시 종로구 진흥로22길 8-1 (구기동),02-391-7072,02-391-7071,6,88,0,8,7,33,19,37.60668049186278,126.95830100591704,미운영,,2013-09-02,,,
서울특별시,종로구,종로숲어린이집,국공립,정상,3009.0,서울특별시 종로구 평창문화로 73-7 종로생명숲어린이집,02-359-1671,02-359-1673,8,397,3,24,27,123,120,37.60646733045679,126.96817657791692,미운영,https://jongnolife.kidsnote.ac,2014-01-01,,,
서울특별시,종로구,GS건설 꿈과 희망의 어린이집,직장,정상,3159.0,서울특별시 종로구 종로 33 그랑서울 타워2  (2층),02-3789-5971,02-3789-5973,5,202,1,8,14,76,36,37.57096024357674,126.98144024815856,미운영,http://www.puruni.com/gsconst,2014-01-29,,,
서울특별시,종로구,LG광화문어린이집,직장,정상,3184.0,서울특별시 종로구 신문로2가 새문안로 58 ,070-4065-0286,070-4065-0287,3,196,0,8,8,40,11,37.5692752221037,126.97157918099764,미운영,,2014-02-12,,,
서울특별시,종로구,현대해상 온마음어린이집,직장,정상,3176.0,서울특별시 종로구 신문로2가 경희궁1길 9 ,02-725-5355,02-725-5356,4,217,1,8,16,49,37,37.57113113364561,126.97100796248088,미운영,,2014-02-26,,,
서울특별시,종로구,창경어린이집,국공립,정상,3073.0,서울특별시 종로구 성균관로1길 6-3 ,02-766-1514,02-764-1514,3,90,0,8,9,34,17,37.58343865092836,126.99778097189912,미운영,,2014-07-01,,,
서울특별시,종로구,아이누리 어린이집,직장,정상,3174.0,서울특별시 종로구 사직로8길 20 파크팰리스 제1층 제101호,02-6959-7695,02-6959-7696,3,142,0,13,12,49,25,37.57393132279893,126.97059029610531,미운영,,2015-02-24,,,
서울특별시,종로구,SGI서울보증 어린이집,직장,정상,3128.0,서울특별시 종로구 김상옥로 29 2층,02-3671-7051,02-3671-7053,4,178,0,15,12,49,21,37.573628643388055,127.00103012788806,미운영,https://www.puruni.com/sgic,2016-02-22,,,
서울특별시,종로구,서울경찰청어린이집,직장,정상,3169.0,서울특별시 종로구 사직로8길 31 ,02-720-8502,--,6,260,1,31,23,80,65,37.5748364,126.9719665,미운영,,2016-08-26,,,
서울특별시,종로구,한숲어린이집,직장,정상,3181.0,서울특별시 종로구 통일로 134 디타워 돈의문 2층,02-735-1712,02-735-1713,4,190,0,16,14,39,28,37.56686634451361,126.96620127757718,미운영,https://www.puruni.com/dlenc,2016-09-02,,,
서울특별시,종로구,천사어린이집,국공립,정상,3092.0,서울특별시 종로구 낙산길 198 205-101,02-3674-1004,02-3673-1005,4,75,0,5,8,20,15,37.5804180113,127.0111852611,미운영,http://cafe.naver.com/1004nursery,2017-01-01,,,
서울특별시,종로구,SC으뜸별 어린이집,직장,정상,3160.0,서울특별시 종로구 종로 47 ,02-3210-0904,02-3210-0901,4,149,0,10,10,49,11,37.5711261798,126.9824408691,미운영,,2017-08-31,,,
서울특별시,종로구,도담도담어린이집,국공립,정상,3110.0,서울특별시 종로구 숭인동길 47 ,02-921-4500,--,5,250,3,15,11,62,52,37.5770648189,127.0218623558,미운영,,2018-03-01,,,
서울특별시,종로구,경희궁자이어린이집,국공립,정상,3180.0,서울특별시 종로구 경교장길 35 306동 데크층,02-720-1633,02-720-1634,5,172,1,9,16,65,47,37.56893882048901,126.96685686495866,미운영,,2018-02-09,,,
서울특별시,종로구,경희궁솔빛어린이집,국공립,정상,3165.0,서울특별시 종로구 송월길 99 210동 1층,02-732-8003,070-4036-8004,6,134,0,12,15,45,43,37.570919642,126.9622964217,미운영,,2018-02-19,,,
서울특별시,종로구,동화속아이들어린이집,국공립,정상,3025.0,서울특별시 종로구 통일로 246-11 무악현대아파트 단지내,02-733-2440,--,6,176,1,8,12,65,40,37.5750955987,126.9591246301,미운영,,2018-03-01,,,
서울특별시,종로구,삼양어린이집,직장,정상,3129.0,서울특별시 종로구 종로33길 31 ,02-760-5081,02-740-7290,3,191,0,14,7,45,11,37.5726123205,127.0010957695,미운영,www.puruni.com/samyangjn,2018-02-28,,,
서울특별시,종로구,선재어린이집,국공립,정상,3144.0,서울특별시 종로구 우정국로 51-4 ,02-720-9770,02-720-9771,6,274,1,19,18,97,68,37.57347189187701,126.98225014135956,미운영,,2019-07-16,,,
서울특별시,종로구,라이나생명 키즈나루 어린이집,직장,정상,3156.0,서울특별시 종로구 삼봉로 48 시그나 빌딩 2층,02-3779-8170,02-3779-8177,4,170,1,8,11,49,15,37.57209526383034,126.98000913689998,미운영,,2020-03-01,,,
서울특별시,종로구,서울지방국세청 우리누리어린이집,직장,정상,3151.0,서울특별시 종로구 종로5길 86 ,02-739-5100,--,4,152,2,16,8,55,16,37.57413147177976,126.97977086919582,미운영,,2020-07-01,,,
서울특별시,종로구,로카키즈어린이집,직장,정상,3184.0,서울특별시 종로구 새문안로2길 10 1층,02-739-8042,--,3,67,0,12,9,25,8,37.56870363599733,126.97197897091388,미운영,,2021-04-01,,,
서울특별시,종로구,청정원 종로 어린이집,직장,정상,3130.0,서울특별시 종로구 창경궁로 120 종로플레이스 2층,02-2231-1896,070-4035-6154,5,219,1,27,14,65,28,37.572961897751824,126.9981888022783,미운영,,2021-12-01,,,
서울특별시,종로구,감사원어린이집,직장,정상,3053.0,서울특별시 종로구 북촌로 127 ,02-730-9390,--,4,175,0,24,7,49,17,37.587039,126.9833954,미운영,,2022-03-01,,,
서울특별시,종로구,연동어린이집,국공립,정상,3128.0,서울특별시 종로구 대학로3길 9 연지동,02-3673-2866,--,4,112,1,10,13,41,33,37.57392371531399,127.00140652631974,미운영,,2022-03-01,,,
서울특별시,종로구,강북삼성병원 효석어린이집,직장,정상,," 경교장길 8, 중앙대학교 캠퍼스 1층",02-2001-1455,--,3,149,0,20,12,32,8,37.56647,126.977963,미운영,,2024-02-16,,,
서울특별시,중구,다산어린이집,국공립,정상,4604.0,서울특별시 중구 동호로15길 50 (신당동),02-2232-6905,02-2234-8084,10,445,2,39,23,118,70,37.55432868,127.0082457,미운영,,1995-03-02,,,
서울특별시,중구,단우물 어린이집,국공립,정상,4576.0,서울특별시 중구 다산로48길 33 단우물어린이집(황학동),02-2234-9125,02-2238-5664,6,222,1,26,15,79,50,37.56751684,127.0181216,미운영,,1992-04-01,,,
서울특별시,중구,중구청직장어린이집,국공립,정상,4559.0,서울특별시 중구 마른내로12길 17-19 ,02-3396-4049,02-2278-4489,5,251,1,16,9,63,24,37.56384837392489,127.00120016320808,미운영,cafe.naver.com/junggu07,1992-09-15,,,
서울특별시,중구,충무어린이집,국공립,정상,4618.0,서울특별시 중구 동호로27길 21 (묵정동),02-2264-3679,02-2273-5019,5,150,2,13,11,48,22,37.56024397,127.0017202,미운영,cafe.daum.net/cmchild,1992-04-08,,,
서울특별시,중구,신당중앙어린이집,법인·단체등,정상,4608.0,서울특별시 중구 다산로 165 (신당동),02-2234-7589,02-2236-3054,4,136,0,11,10,49,32,37.55831345,127.0121588,미운영,,1996-03-01,,,
서울특별시,중구,약수교회어린이집,법인·단체등,정상,4596.0,서울특별시 중구 다산로8길 32 (신당동),02-2233-5131,02-2233-5124,3,125,0,11,8,41,22,37.55235768,127.011203,미운영,,1997-02-25,,,
서울특별시,중구,중림어린이집,국공립,정상,4508.0,서울특별시 중구 만리재로35길 12 (만리동1가),02-364-7534,02-363-5808,6,234,1,21,21,89,61,37.55562297,126.9677162,미운영,http://iutv.co.kr/jlcentergz,1991-10-22,,,
서울특별시,중구,필동어린이집,국공립,정상,4626.0,서울특별시 중구 퇴계로36가길 60 (필동2가),02-2274-2268,02-2274-7781,6,224,1,23,17,79,41,37.5576761,126.9954627,미운영,,1982-11-20,,,
서울특별시,중구,회현어린이집,국공립,정상,4633.0,서울특별시 중구 퇴계로12가길 23 (회현동1가),02-757-0896,02-757-0897,7,431,2,27,22,93,62,37.55595582,126.9808257,미운영,,1994-12-12,,,
서울특별시,중구,가명어린이집,법인·단체등,정상,4506.0,서울특별시 중구 청파로 447-1 ,02-365-7021,02-365-7025,4,239,1,10,18,74,63,37.5589741,126.9670146,미운영,www.gamyung.com,1997-03-06,,,
서울특별시,중구,신당동어린이집,국공립,정상,4610.0,서울특별시 중구 청구로8길 41 (신당동),02-2233-9478,--,9,512,1,32,19,106,75,37.56223299,127.0141014,미운영,,1984-12-11,,,
서울특별시,중구,청구어린이집,국공립,정상,4592.0,서울특별시 중구 다산로24길 81 (신당동),02-2236-1466,02-2233-7679,8,440,1,24,22,121,58,37.55718798,127.0166839,미운영,,1987-03-02,,,
서울특별시,중구,황학어린이집,국공립,정상,4574.0,서울특별시 중구 난계로15길 23 (황학동),02-2234-6840,02-2238-6840,7,342,1,20,18,99,69,37.5687791824,127.0223262912,미운영,,1981-04-01,,,
서울특별시,중구,영락교회어린이집,법인·단체등,정상,4552.0,서울특별시 중구 수표로 33 (저동2가),02-2266-5878,02-2263-2730,3,272,1,16,10,49,23,37.5632088,126.9891675,미운영,,1998-03-31,,,
서울특별시,중구,약수어린이집,국공립,정상,4597.0,서울특별시 중구 다산로6길 15 (신당동),02-2252-7672,070-4015-7672,5,231,1,18,16,79,46,37.55230956,127.0092242,미운영,http://yaksukids.ukid.kr,1988-09-14,,,
서울특별시,중구,만리어린이집,국공립,정상,4500.0,서울특별시 중구 만리동2가 만리재로 175 (만리동2가),02-312-8718,02-312-8789,7,309,3,35,27,98,97,37.5530803784,126.9637947247,미운영,,1983-06-24,,,
서울특별시,중구,신당5동어린이집,국공립,정상,4583.0,서울특별시 중구 퇴계로88가길 8-10 ,02-2234-2745,02-2234-2730,12,393,2,21,21,170,66,37.56299121,127.0207595,미운영,http://sindang5.ukid.kr,1982-11-08,,,
서울특별시,중구,남산숲어린이집,국공립,정상,4595.0,서울특별시 중구 동호로5길 193 남산숲어린이집 (신당동),02-2234-2753,02-2253-6475,7,339,1,19,18,131,84,37.54652787,127.0089375,운영,http://sindang3.ukid.kr,1982-01-01,,,
서울특별시,중구,동화나라어린이집,국공립,정상,4584.0,서울특별시 중구 다산로38길 80 (신당동),02-2236-5156,02-2232-5156,10,388,2,24,28,165,101,37.56154523,127.0192628,미운영,,1995-03-10,,,
서울특별시,종로구,SK네트웍스새싹어린이집,직장,정상,3190.0,"서울특별시 종로구 청계천로 85 삼일빌딩, 3층",070-7800-2115,070-7800-2118,4,208,0,8,6,49,7,37.56505624,126.9830142,미운영,http://moamom016.kiznet.co.kr,2009-01-29,,,
서울특별시,중구,다솜어린이집,국공립,정상,4593.0,"서울특별시 중구 동호로10길 30 103동 101호(신당동, 약수하이츠)",02-2236-9121,02-2231-9169,3,70,0,4,9,20,19,37.55472522,127.0146044,미운영,,2017-01-01,,,
서울특별시,중구,서소문삼성어린이집,직장,정상,4523.0,"서울특별시 중구 을지로1가 을지로 19 2,3,5층 서소문삼성어린이집",02-757-5463,02-753-5968,7,544,3,36,18,99,47,37.566295092422,126.97993428392319,미운영,,2003-02-25,,,
서울특별시,중구,신당삼성어린이집,민간,정상,4598.0,서울특별시 중구 동호로15길 21-36 ,02-2233-6925,02-2233-6927,4,130,1,19,11,52,27,37.55576832,127.0092927,미운영,,1995-12-28,,,
서울특별시,중구,한솔어린이집,민간,정상,4595.0,서울특별시 중구 다산로 32 남산타운 단지내  한솔어린이집,02-2256-0330,02-2256-0332,7,310,2,8,14,97,58,37.54916083,127.0093802,운영,,2001-03-03,,,
서울특별시,중구,아기사랑어린이집,국공립,정상,4586.0,서울특별시 중구 다산로32길 25 (신당동),02-2253-1467,02-2253-1467,3,80,0,5,9,30,13,37.56085349,127.0158287,미운영,,2016-01-01,,,
서울특별시,중구,서울시청직장어린이집,직장,정상,4515.0,서울특별시 중구 서소문로11길 24 5-1번지 서울시청직장어린이집,02-775-5491,02-775-5493,12,695,2,64,43,195,129,37.56450641,126.9760072,미운영,,2000-02-01,,,
서울특별시,중구,경동어린이집,법인·단체등,정상,4614.0,서울특별시 중구 장충단로 204 ,02-2272-7158,02-2272-7158,4,129,0,12,12,49,39,37.56319426,127.0073109,미운영,,1993-03-31,,,
서울특별시,중구,신일교회어린이집,법인·단체등,정상,4590.0,서울특별시 중구 다산로 128-9 ,02-2253-1159,02-2252-2143,6,169,2,16,14,42,27,37.55500747,127.0115053,미운영,,2002-03-20,,,
서울특별시,중구,SKT행복날개어린이집,직장,정상,4539.0,서울특별시 중구 을지로2가 을지로 65 SK-T타워 3층,02-6100-0115,02-6100-7992,8,402,2,27,31,116,93,37.56647,126.9851118,미운영,www.puruni.com/ChildCenter/skt,2007-03-02,,,
서울특별시,중구,엔젤어린이집,가정,정상,4502.0,"서울특별시 중구 중림로 10 106동 103호(중림동, 사이버빌리지)",02-364-3642,02-364-3652,4,85,0,4,6,20,8,37.5581639,126.9652466,미운영,,2008-05-26,,,
서울특별시,중구,롯데캐슬어린이집,국공립,정상,4572.0,서울특별시 중구 청계천로 400 롯데캐슬베네치아아파트 103동7층관리동 (황학동),02-2048-5757,0507-0876-582,4,69,0,6,9,22,22,37.57089532,127.0213261,미운영,,2018-03-01,,,
서울특별시,중구,우리누리 어린이집,직장,정상,4551.0,서울특별시 중구 삼일대로 340 나라키움빌딩 2층 (저동1가),02-2260-0257,02-2260-0258,4,119,0,14,6,25,7,37.5652146,126.9879156,미운영,,2008-10-15,,,
서울특별시,중구,남산타운어린이집,국공립,정상,4595.0,서울특별시 중구 다산로 32 (신당동),02-2256-5114,070-4015-4073,3,93,0,13,11,35,18,37.54953333,127.0118978,미운영,http://namsan2010.sajinori.com,2010-02-16,,,
서울특별시,중구,한국은행 어린이집,직장,정상,4531.0,서울특별시 중구 남대문로 39 한국은행 통합별관 5층,02-750-6701,02-750-6700,8,420,1,41,31,116,80,37.5624122463116,126.98117130967417,미운영,,2010-02-26,,,
서울특별시,중구,엄마품어린이집,가정,정상,4588.0,"서울특별시 중구 청구로1길 23 108동 102호(신당동, 삼성아파트)",02-6365-2004,02-6365-2004,3,64,1,4,5,19,1,37.55818528,127.0179656,미운영,,2010-03-17,,,
서울특별시,중구,햇살어린이집,가정,정상,4607.0,"서울특별시 중구 동호로14길 11-8 B동 102호(신당동, 뉴타운빌)",02-2236-4558,02-2236-4558,3,48,0,3,8,13,8,37.55653529,127.010497,미운영,,2011-04-15,,,
서울특별시,중구,CJ키즈빌 어린이집,직장,정상,4560.0,서울특별시 중구 동호로 330 (쌍림동),02-722-1070,02-722-1074,7,399,2,16,32,120,91,37.56396399,127.0032756,미운영,,2011-05-27,,,
서울특별시,중구,리틀포도나무어린이집,민간,정상,4582.0,서울특별시 중구 퇴계로90길 74 래미안하이베르아파트 관리동1층,02-2233-3515,02-2233-3511,7,321,2,16,19,74,63,37.5616162065133,127.022623804695,미운영,,2012-02-24,,,
서울특별시,중구,농협중앙회어린이집,직장,정상,4516.0,서울특별시 중구 새문안로 16 ,02-2080-4941,02-2080-4940,3,210,0,16,13,49,42,37.5664636169861,126.967736925035,미운영,,2012-03-02,,,
서울특별시,중구,마주어린이집,가정,정상,4502.0,서울특별시 중구 중림로 10 삼성사이버빌리지 112-102,02-6324-6325,02-6324-6326,3,61,0,4,5,19,4,37.557582837103226,126.96560417782273,미운영,,2012-07-25,,,
서울특별시,중구,동화어린이집,국공립,정상,4587.0,서울특별시 중구 청구로 64 청구e편한세상아파트 106동 1층,02-2234-1226,02-2236-1226,4,121,0,10,14,40,30,37.56000212173593,127.0155196287449,미운영,,2012-12-11,,,
서울특별시,중구,해피맘어린이집,가정,정상,4572.0,서울특별시 중구 청계천로 400 롯데캐슬베네치아 105동 704호,02-2048-5756,02-2048-5756,3,68,0,4,7,20,19,37.570813133291054,127.02146216177962,미운영,,2013-03-04,,,
서울특별시,중구,무지개어린이집,가정,정상,4588.0,"서울특별시 중구 청구로1길 23 113동 103호(신당동,신당삼성아파트)",02-2252-4777,02-2252-4777,3,85,0,4,7,20,16,37.558563761085765,127.01843027609456,미운영,,2013-03-04,,,
서울특별시,중구,키즈숲 어린이집,가정,정상,4595.0,"서울특별시 중구 다산로 32 15동 101호(신당동, 남산타운)",02-2256-0523,02-2256-0523,4,59,0,4,6,20,11,37.54712592365811,127.00558178427904,미운영,,2013-04-19,,,
서울특별시,중구,예금보험공사어린이집,직장,정상,4521.0,서울특별시 중구 청계천로 30 2층,02-318-3701,02-318-3998,3,121,1,15,13,45,26,37.568538896462414,126.98074856812958,미운영,www.puruni.com/kdic,2013-07-12,,,
서울특별시,중구,SK브로드밴드 행복한 어린이집,직장,정상,4637.0,서울특별시 중구 남대문로5가 퇴계로 24 SK남산그린빌딩 4층,02-6266-2300,02-6266-2303,3,148,0,9,10,35,20,37.55661899726137,126.97596160238535,미운영,,2013-08-29,,,
서울특별시,중구,을지로 하나금융그룹 직장어린이집,직장,정상,4539.0,서울특별시 중구 을지로2가 을지로 55 하나은행 2층,02-779-6227,02-779-6229,4,201,1,15,12,65,23,37.56640879202888,126.98402663566662,미운영,,2013-08-30,,,
서울특별시,중구,한화태평로어린이집,직장,정상,4525.0,서울특별시 중구 태평로2가 세종대로 92 4층,02-6366-7120,02-6366-7122,4,202,1,9,16,60,34,37.56423453944913,126.97757093345318,미운영,,2014-02-10,,,
서울특별시,중구,GKL행복어린이집,직장,정상,4637.0,서울특별시 중구 남대문로5가 한강대로 416 서울스퀘어 5층,02-6456-8816,--,4,182,0,11,8,49,8,37.5555048939659,126.97375281464888,미운영,,2015-02-27,,,
서울특별시,중구,롯데mom편한어린이집,직장,정상,4632.0,"서울특별시 중구 회현동1가 소공로 35 남산롯데캐슬아이리스 210호, 211호",02-774-4498,02-774-4499,4,104,0,9,6,34,6,37.55822380859089,126.9817467235163,미운영,,2016-03-02,,,
서울특별시,중구,우리은행어린이집,직장,정상,4632.0,서울특별시 중구 회현동1가 소공로 51 ,02-2002-3095,02-2002-3092,3,133,0,11,12,39,20,37.559438353357024,126.98175095441134,미운영,https://moamom084.kiznet.co.kr,2016-08-25,,,
서울특별시,중구,미담어린이집,국공립,정상,4575.0,서울특별시 중구 퇴계로 447 ,02-2231-7227,02-2231-7337,4,166,0,8,11,49,28,37.5660402677,127.0217233062,미운영,cafe.daum.net/midam0529,2017-05-01,,,
서울특별시,중구,IBK 참! 좋은 어린이집,직장,정상,4538.0,서울특별시 중구 을지로2가 을지로 82 ,02-2031-3394,--,5,283,1,22,19,90,61,37.5657063891,126.9870828853,미운영,,2017-03-20,,,
서울특별시,중구,LG서울역어린이집,직장,정상,4637.0,서울특별시 중구 남대문로5가 후암로 98 2층,02-3789-1002,--,4,177,0,15,17,49,45,37.55395945981493,126.9747967942587,미운영,,2017-10-26,,,
서울특별시,중구,늘푸른어린이집,국공립,정상,4500.0,서울특별시 중구 만리동2가 만리재로21길 9 ,02-2088-1318,02-2088-1312,3,101,0,12,12,38,32,37.5528170627,126.9630705681,미운영,,2018-04-16,,,
서울특별시,중구,신한꿈나무어린이집,직장,정상,4542.0,서울특별시 중구 을지로2가 삼일대로 358 신한L타워 3층,02-6250-8091,02-6250-2093,4,219,1,19,15,62,44,37.5664885611,126.9881059884,미운영,www.puruni.com/shinhan,2018-08-31,,,
서울특별시,중구,명동하나금융그룹직장어린이집,직장,정상,4538.0,서울특별시 중구 을지로2가 을지로 66 하나금융그룹 명동사옥 2층,02-319-9606,02-319-9609,4,213,2,23,16,65,32,37.56555479225988,126.98513267110089,미운영,https://www.puruni.com/hanajg,2019-02-27,,,
서울특별시,중구,교원&하나투어 공동직장어린이집,직장,정상,4539.0,서울특별시 중구 을지로2가 을지로 55 교원명동빌딩 3층,02-779-6118,--,5,193,1,22,11,60,18,37.5658904,126.9850802,미운영,,2019-05-13,,,
서울특별시,중구,푸르지오비씨 어린이집,직장,정상,4548.0,서울특별시 중구 을지로4가 을지로 170 ,02-2288-2761,02-2288-2763,4,229,1,23,15,70,34,37.56632830333276,126.99737682595428,미운영,,2019-05-31,,,
서울특별시,중구,신당하나어린이집,국공립,정상,4580.0,서울특별시 중구 왕십리로 407 신당파인힐하나유보라 103동 1층,02-2256-7646,02-2256-7647,4,136,1,14,13,33,31,37.56430066488869,127.02515009579788,미운영,,2019-06-01,,,
서울특별시,중구,아이다움어린이집,가정,정상,4581.0,서울특별시 중구 난계로 130 102동 102호,02-2233-7942,--,3,42,0,4,6,15,10,37.56350229819328,127.02447778826442,미운영,https://iseoul.seoul.go.kr/homepage/main.do?stCode=111400001160,2020-01-18,,,
서울특별시,중구,키즈일레븐어린이집,직장,정상,4637.0,서울특별시 중구 한강대로 416 2층,02-6456-8560,--,3,161,0,10,9,49,10,37.55583997172427,126.9733362169908,미운영,,2020-02-25,,,
서울특별시,중구,농협중앙회 별관 어린이집,직장,정상,4516.0,서울특별시 중구 새문안로 16 농협중앙회 별관 2층,02-2080-8135,--,3,139,0,12,14,40,34,37.56631941482,126.96772109776006,미운영,puruni.com/nonghyup2,2021-11-18,,,
서울특별시,중구,현대캐피탈 도담어린이집,직장,정상,4527.0,서울특별시 중구 세종대로 14 그랜드센트럴 2층 현대캐피탈 도담어린이집,02-6411-6191,--,5,178,0,25,17,49,32,37.55771431591427,126.97455785839598,미운영,,2022-10-20,,,
서울특별시,중구,세운어린이집,국공립,정상,4544.0,서울특별시 중구 을지로15길 32 힐스테이트 세운센트럴 2단지,02-2268-5156,02-2268-5157,4,139,0,16,14,49,37,37.56797478931895,126.99483277104972,미운영,,2023-05-08,,,
서울특별시,중구,이마트 어린이집,직장,정상,4511.0,서울특별시 중구 세종대로7길 37 1층(순화동),02-380-9106,--,3,116,1,10,10,30,27,37.56647,126.977963,미운영,,2023-05-15,,,
서울특별시,중구,새봄어린이집,국공립,정상,4572.0,서울특별시 중구 청계천로 400 101동 709호,02-2231-3132,0508-900-9130,4,68,0,4,8,20,13,37.57087887408118,127.02026221006618,미운영,,2024-01-01,,,
서울특별시,용산구,보광 어린이집,국공립,정상,4415.0,서울특별시 용산구 보광로12가길 48-4 보광 어린이집 (보광동),02-795-2844,02-797-1486,6,293,1,8,16,141,40,37.52876568620308,127.00097860075356,미운영,,1986-12-03,,,
서울특별시,용산구,서계어린이집,국공립,정상,4300.0,서울특별시 용산구 청파로93길 25 서계어린이집,02-715-6046,--,6,351,1,12,14,84,58,37.55352595,126.9682985,미운영,,1982-08-10,,,
서울특별시,용산구,소월어린이집,국공립,정상,4339.0,서울특별시 용산구 신흥로18길 3-5 ,02-749-5391,02-792-2203,5,114,2,12,10,55,24,37.54613603,126.9858175,미운영,,2003-09-01,,,
서울특별시,용산구,용산교회어린이집,법인·단체등,정상,4316.0,서울특별시 용산구 원효로1가 백범로77길 36 ,02-3272-9521,02-3272-9521,4,135,0,6,9,30,15,37.53982444,126.9655838,미운영,,1996-02-28,,,
서울특별시,용산구,후암어린이집,국공립,정상,4335.0,서울특별시 용산구 두텁바위로1길 86 (후암동),02-752-7223,02-771-7223,6,208,2,8,14,86,54,37.54765193,126.9758361,미운영,,1995-04-01,,,
서울특별시,용산구,새싹어린이집,국공립,정상,4364.0,서울특별시 용산구 원효로67길 13 (원효로2가),02-701-7289,02-701-3323,4,195,1,5,9,52,31,37.53756691,126.9638906,미운영,,1997-01-01,,,
서울특별시,용산구,청파어린이집,국공립,정상,4309.0,서울특별시 용산구 청파로49길 19 (청파동2가),02-716-7998,02-706-6998,5,216,2,11,14,84,42,37.54528251,126.9690391,미운영,http://cafe.naver.com/bestchungpa,1986-12-10,,,
서울특별시,용산구,절제어린이집,사회복지법인,정상,4324.0,서울특별시 용산구 후암로57길 57 (동자동),02-771-4937,02-773-4919,3,200,2,14,8,37,19,37.55092073,126.9741571,미운영,http://julje.ukid.kr,1991-10-01,,,
서울특별시,용산구,원효어린이집,국공립,정상,4363.0,서울특별시 용산구 원효로41가길 14-19 ,02-704-2463,02-711-2463,5,386,1,9,13,89,38,37.53480088,126.9566433,미운영,http://cafe.daum.net/wonhyokids,1989-11-30,,,
서울특별시,용산구,햇살꼬마숲어린이집,가정,정상,4368.0,"서울특별시 용산구 원효로 216 109동 104호(신계동, 용산E편한세상)",02-714-3151,--,4,108,0,5,6,19,13,37.536115494022624,126.96697322674152,미운영,www.littleforest.co.kr/home/singye-dong,2002-03-19,,,
서울특별시,용산구,이태원어린이집,국공립,정상,4351.0,서울특별시 용산구 녹사평대로40나길 38-3 ,02-798-2592,02-798-2592,5,127,2,7,11,54,38,37.53627931,126.9888363,미운영,,1982-08-16,,,
서울특별시,용산구,이촌어린이집,국공립,정상,4374.0,서울특별시 용산구 이촌로14길 11-22 ,02-713-9920,02-718-9920,7,260,1,11,17,104,46,37.52707429558434,126.9544762958136,미운영,ech9920@hanmail.net,1983-08-30,,,
서울특별시,용산구,용산어린이집,국공립,정상,4386.0,서울특별시 용산구 한강로2가 한강대로38길 28 용산어린이집,02-795-0432,02-795-0431,6,282,1,10,19,97,92,37.528142242670505,126.96922807094676,운영,,1978-12-16,,,
서울특별시,용산구,도원어린이집,국공립,정상,4356.0,서울특별시 용산구 효창원로37마길 8 도원어린이집 (용문동),02-701-1284,02-701-1287,5,160,2,13,19,70,66,37.53825626,126.9585708,미운영,,1995-05-01,,,
서울특별시,용산구,해방어린이집,국공립,정상,4338.0,서울특별시 용산구 소월로20길 43 해방어린이집 (용산동2가),02-795-8450,02-795-8456,5,180,2,12,11,86,40,37.54428402,126.9851444,미운영,,1992-10-01,,,
서울특별시,용산구,남산중앙어린이집,법인·단체등,정상,4328.0,서울특별시 용산구 두텁바위로60길 74 남산중앙교회내 (후암동),02-754-9919,--,4,164,0,8,7,49,12,37.54829648,126.9835883,미운영,,1996-03-22,,,
서울특별시,용산구,솔어린이집,국공립,정상,4394.0,서울특별시 용산구 장문로 95 (보광동),02-797-6858,02-790-6810,4,370,1,6,8,52,20,37.52630015,127.0001453,미운영,,2001-12-10,,,
서울특별시,용산구,동빙고어린이집,국공립,정상,4398.0,서울특별시 용산구 녹사평대로14길 7 (동빙고동),02-795-3935,02-3785-3579,7,341,3,25,27,116,82,37.52357987,126.9939889,운영,dbg86@hanmail.com,1985-12-18,,,
서울특별시,용산구,사무엘 어린이집,법인·단체등,정상,4351.0,서울특별시 용산구 이태원로15길 1 (이태원동),02-796-7470,02-792-7470,4,253,1,7,10,52,33,37.53458993,126.9902135,미운영,,1996-03-07,,,
서울특별시,용산구,영락어린이집,사회복지법인,정상,4336.0,서울특별시 용산구 후암로4길 70 (후암동),02-775-2157,02-775-2150,4,153,1,8,8,52,24,37.54843004,126.9813118,미운영,영락어린이집(다음카페),1994-03-15,,,
서울특별시,용산구,햇빛어린이집,법인·단체등,정상,4306.0,서울특별시 용산구 효창원로86가길 28 (청파동1가),02-706-1344,02-706-1345,6,449,1,14,10,84,22,37.54820834,126.9653491,미운영,,1997-01-10,,,
서울특별시,용산구,꿈꾸는어린이집,가정,정상,4319.0,"서울특별시 용산구 효창원로69길 57 101동 104호(효창동, 효창베네스빌)",02-719-6545,02-719-6545,3,52,0,3,6,18,11,37.54166978,126.9612742,미운영,,2009-03-05,,,
서울특별시,용산구,백송어린이집,국공립,정상,4312.0,서울특별시 용산구 효창원로76길 25-6 ,02-718-3103,02-703-6103,6,349,1,10,15,79,45,37.54354693,126.9633574,미운영,,2004-08-31,,,
서울특별시,용산구,한남어린이집,국공립,정상,4400.0,서울특별시 용산구 대사관로5길 1 (한남동),02-749-0824,02-749-0825,4,150,2,8,16,55,45,37.53453304,127.0004722,미운영,,2006-02-28,,,
서울특별시,용산구,청화어린이집,가정,정상,4416.0,"서울특별시 용산구 보광로 14 A동 108호(보광동, 신동아1차아파트)",02-3785-1684,02-3785-1684,3,112,0,5,5,20,7,37.52574417,127.0017389,미운영,,2011-08-22,,,
서울특별시,용산구,이태원삼성어린이집,민간,정상,4349.0,서울특별시 용산구 이태원로27길 34-30 ,02-3785-2478,02-3785-2477,4,198,2,23,15,65,53,37.53532514,126.9953858,미운영,,1997-04-18,,,
서울특별시,용산구,꿈동이어린이집,가정,정상,4423.0,"서울특별시 용산구 이촌로87길 21 101동 101호(이촌동, 이촌코오롱)",02-795-5475,02-796-5475,3,144,2,4,7,20,19,37.52000465,126.9786745,미운영,,1999-04-30,,,
서울특별시,용산구,상록어린이집,민간,정상,4319.0,서울특별시 용산구 백범로45길 4 (효창동),02-715-1009,02-715-4008,7,410,1,10,22,99,88,37.54095702,126.9583035,운영,http://blog.naver.com/sangqum1,1995-11-20,,,
서울특별시,용산구,꿈밭어린이집,민간,정상,4423.0,서울특별시 용산구 이촌로81길 34 꿈밭어린이집,02-792-8645,02-792-8646,3,258,1,4,9,60,38,37.52000465,126.9786745,운영,,2000-11-22,,,
서울특별시,용산구,청운어린이집,민간,정상,4306.0,서울특별시 용산구 효창원로94길 23 (청파동1가),02-715-1657,02-706-1657,7,199,1,15,12,64,38,37.54828177,126.9647823,운영,www.daum.net/cwkids2009,1998-03-03,,,
서울특별시,용산구,효창어린이집,민간,정상,4319.0,서울특별시 용산구 효창원로69길 14-3 (효창동),02-711-5408,02-3272-5061,6,238,2,15,12,84,40,37.541564620744175,126.9606908669794,운영,,1999-03-02,,,
서울특별시,용산구,반석어린이집,민간,정상,4312.0,서울특별시 용산구 효창원로 178 (청파동3가),02-719-9271,02-719-9271,3,110,0,3,6,32,12,37.54361561,126.9626628,운영,http://cafe.daum.net/peternurser,2001-01-02,,,
서울특별시,용산구,해솔어린이집,가정,정상,4394.0,서울특별시 용산구 장문로19길 31 ,02-790-8137,--,4,99,0,6,5,20,9,37.52636225932999,126.99859719537277,미운영,,2003-03-06,,,
서울특별시,용산구,새날어린이집,민간,정상,4354.0,서울특별시 용산구 새창로8길 7 삼성래미안아파트 2단지내 관리동1층 (도원동),02-718-6635,02-711-6635,4,99,0,4,12,31,27,37.5383072,126.9552593,운영,,2002-02-22,,,
서울특별시,용산구,새꿈어린이집,국공립,정상,4323.0,서울특별시 용산구 후암로57길 26 (동자동),02-775-6514,02-775-6655,5,203,1,8,12,45,35,37.55238518,126.9733573,미운영,,2002-03-08,,,
서울특별시,용산구,신태양 어린이집,민간,정상,4300.0,서울특별시 용산구 만리재로 178 (서계동),02-702-0338,02-3273-1747,4,95,0,5,13,39,30,37.55399714,126.9660274,미운영,,2003-04-21,,,
서울특별시,용산구,새랑꿈이랑 어린이집,민간,정상,4354.0,서울특별시 용산구 새창로 70 삼성래미안아파트 단지내 (도원동),02-3273-2992,02-3273-2993,9,309,1,12,14,117,48,37.5383072,126.9552593,미운영,http://cafe.daum.net/serang1004,2003-01-24,,,
서울특별시,용산구,선인방과후교실어린이집,법인·단체등,정상,4360.0,서울특별시 용산구 효창원로8길 17 선인중앙교회 (원효로4가),02-718-0691,02-717-7103,3,105,0,1,1,20,11,37.53389122,126.9521087,미운영,,2006-04-06,,,
서울특별시,용산구,참나무방과후 어린이집,법인·단체등,정상,4356.0,서울특별시 용산구 새창로12길 11-18 용산제일교회내 참나무방과후교실 (도원동),02-714-0693,--,3,146,0,3,4,40,23,37.53871489,126.9581627,미운영,,2005-01-25,,,
서울특별시,용산구,완두콩어린이집,가정,정상,4304.0,서울특별시 용산구 청파로71길 58 아이딜아파트 101호 (청파동1가),02-3272-3368,02-3272-3368,3,60,0,4,2,19,2,37.54942454,126.9669722,미운영,,2005-01-05,,,
서울특별시,용산구,엘지유플러스어린이집,직장,정상,4379.0,서울특별시 용산구 한강로3가 한강대로 32 ,070-8277-4119,050-5167-2285,3,103,0,5,9,39,25,37.52384284000428,126.9635283068631,미운영,tel. 070-8277-4120,1996-04-18,,,
서울특별시,용산구,효창방과후어린이집,법인·단체등,정상,4317.0,서울특별시 용산구 효창원로 146-12 ,070-4713-9433,02-711-3364,1,177,0,1,2,20,20,37.54123427,126.9629821,미운영,www.hyochang.or.kr,2002-08-02,,,
서울특별시,용산구,영주어린이집,민간,정상,4336.0,서울특별시 용산구 두텁바위로 91 (후암동),02-318-2242,02-754-0248,7,195,1,12,14,72,48,37.54743044,126.9816898,미운영,,2007-10-17,,,
서울특별시,용산구,누리터어린이집,가정,정상,4315.0,"서울특별시 용산구 백범로90길 74 102동 102호(문배동, 용산이안아파트)",02-6401-2379,02-6401-2379,3,85,2,6,6,20,18,37.5367195,126.9685765,미운영,,2007-12-17,,,
서울특별시,용산구,하연어린이집,가정,정상,4307.0,서울특별시 용산구 효창원로86라길 31-10 현대휴먼101호 (청파동1가),02-3273-3276,02-3273-3276,3,61,0,4,5,18,4,37.548094,126.9666963,미운영,,2008-03-17,,,
서울특별시,용산구,아이제일어린이집,직장,정상,4348.0,서울특별시 용산구 이태원로49길 24-7 아이제일어린이집 (한남동),02-797-8551,02-797-8553,3,139,3,19,10,45,16,37.53746496,126.9992936,미운영,,2008-05-21,,,
서울특별시,용산구,푸른숲속어린이집,가정,정상,4358.0,"서울특별시 용산구 효창원로 17 104동 103호(산천동, 리버힐삼성아파트)",02-701-5437,02-701-5457,4,68,0,5,7,20,10,37.53487888,126.9508027,미운영,blueforest.kidsnote.ac,2014-03-11,,,
서울특별시,용산구,늘해랑어린이집,가정,정상,4380.0,"서울특별시 용산구 이촌로29길 21-7 101동 101호(한강로3가, 우림필유아파트)",02-792-4683,--,3,63,0,4,7,20,16,37.52546826,126.9597476,미운영,,2009-05-18,,,
서울특별시,용산구,예꿈어린이집,가정,정상,4428.0,서울특별시 용산구 이촌로 347 1동 102호,070-8776-7070,02-6372-7070,3,69,1,6,7,19,19,37.5190384636,126.9896383594,미운영,,2009-09-07,,,
서울특별시,용산구,한강로어린이집,국공립,정상,4385.0,서울특별시 용산구 서빙고로 35 111호~113호(용산시티파크1단지),02-790-8150,02-790-8152,5,181,2,9,13,58,55,37.52550727,126.9652136,미운영,hope367@hanmail.net,2009-10-09,,,
서울특별시,용산구,국방부청사어린이집,직장,정상,4383.0,서울특별시 용산구 이태원로 22 국방부 (용산동3가),02-798-0097,02-798-7887,18,776,2,58,51,220,156,37.53358278,126.9776714,미운영,http://mndkids.mnd.go.kr,2009-09-30,,,
서울특별시,용산구,아이뜰어린이집,가정,정상,4422.0,서울특별시 용산구 이촌로71길 10 210동 103호,02-749-1684,02-749-1684,4,74,0,4,7,20,19,37.521348924,126.9701584601,미운영,,2010-02-01,,,
서울특별시,용산구,용산구청직장어린이집,직장,정상,4390.0,서울특별시 용산구 녹사평대로 150 종합행정타운 1층 (이태원동),02-794-2543,02-794-2544,5,193,1,10,14,73,51,37.53244208,126.9903466,미운영,,2010-04-13,,,
서울특별시,용산구,맘앤키즈어린이집,가정,정상,4358.0,"서울특별시 용산구 효창원로 17 107동 105호(산천동, 삼성리버힐아파트)",02-719-4183,--,3,84,1,4,7,20,16,37.53487888,126.9508027,미운영,,2010-04-01,,,
서울특별시,용산구,도원삼성어린이집,가정,정상,4356.0,"서울특별시 용산구 새창로 70 112동 104호(도원동, 삼성래미안아파트)",02-712-4242,--,3,55,0,4,5,20,9,37.5383072,126.9552593,미운영,,2010-09-30,,,
서울특별시,용산구,숲속키즈어린이집,가정,정상,4354.0,"서울특별시 용산구 새창로 70 103동 102호 (도원동,삼성래미안아파트)",02-702-5437,--,3,84,0,4,6,20,10,37.53643829,126.9591188,미운영,,2010-10-05,,,
서울특별시,용산구,서머힐어린이집,가정,정상,4392.0,"서울특별시 용산구 장문로 27 상가동, 102호 (이태원동, 청화아파트)",02-794-0567,070-4795-0081,3,75,0,4,10,20,20,37.52910835195778,126.9936735717406,미운영,http://cafe.daum.net/summerhillyongsan,2022-01-26,,,
서울특별시,용산구,서빙고어린이집,국공립,정상,4398.0,서울특별시 용산구 녹사평대로 66 대우푸르지오파크타운 208동앞,02-749-6937,02-749-6934,5,140,2,9,15,50,46,37.52519906,126.9947308,미운영,http;//cafe.daum.net/kids20110701,2011-06-23,,,
서울특별시,용산구,행복한어린이집,민간,정상,4368.0,서울특별시 용산구 원효로 216 신계동49 이편한테마트 1층 101호,02-711-6401,02-6401-9355,4,101,0,5,9,32,29,37.53596195946334,126.96569476837742,미운영,,2011-11-15,,,
서울특별시,용산구,꼬마성어린이집,가정,정상,4393.0,"서울특별시 용산구 장문로6길 76 1단지 1-3 (동빙고동,용산푸르지오파크타운)",02-794-2796,--,4,93,1,4,7,20,19,37.52160605106492,126.99464383133594,미운영,,2011-12-06,,,
서울특별시,용산구,즐거운어린이집,가정,정상,4421.0,서울특별시 용산구 이촌로 201 202동 101호(한가람아파트),02-792-4656,02-792-4656,3,59,0,4,6,20,20,37.52134980870069,126.9701554373006,미운영,,2012-01-30,,,
서울특별시,용산구,생각이자라는어린이집,가정,정상,4381.0,"서울특별시 용산구 이촌로 100-8 103동 102호 (이촌제2동, 동아그린아파트)",02-6352-3030,--,4,63,0,4,6,19,18,37.52425105445809,126.9582677393514,미운영,,2012-02-22,,,
서울특별시,용산구,노벨어린이집,가정,정상,4331.0,서울특별시 용산구 후암로22길 10 104호(후암동),02-796-7270,02-796-7270,3,60,0,4,5,19,8,37.5513978116851,126.977294962797,미운영,,2014-03-04,,,
서울특별시,용산구,IBK 참!좋은 어린이집,직장,정상,4419.0,서울특별시 용산구 한남대로 72 4층,02-798-3360,02-798-3369,6,297,1,20,17,85,39,37.5350669793229,127.007056496912,미운영,,2012-03-27,,,
서울특별시,용산구,초록어린이집,가정,정상,4421.0,"서울특별시 용산구 이촌로 181 108동 103호(이촌동, 한강대우아파트)",02-790-2221,--,3,53,0,4,6,20,20,37.52243120840031,126.97093779275336,미운영,,2012-08-16,,,
서울특별시,용산구,고운꿈어린이집,가정,정상,4421.0,"서울특별시 용산구 이촌로 181 106동 102호(이촌동, 한강대우아파트)",02-797-3797,02-797-3796,3,65,0,4,6,19,18,37.5221536300623,126.97066188802754,미운영,http://cafe.daum.net/106102,2013-03-05,,,
서울특별시,용산구,딩동댕어린이집,가정,정상,4358.0,"서울특별시 용산구 효창원로 17 101동 101호(산천동,리버힐삼성아파트)",02-6010-5437,02-6010-5437,4,76,0,5,6,20,7,37.534997809438096,126.94909182213824,미운영,,2013-04-01,,,
서울특별시,용산구,미래어린이집,국공립,정상,4331.0,서울특별시 용산구 후암로16나길 13 ,02-752-5506,--,6,184,2,16,15,67,45,37.54903665238563,126.97830878870784,미운영,,2013-10-25,,,
서울특별시,용산구,DB손해보험 아이사랑 어린이집,직장,정상,4323.0,서울특별시 용산구 후암로 107 게이트웨이타워 3층,02-771-8607,02-771-8606,4,176,1,13,12,49,32,37.55346138877104,126.9735634051436,미운영,,2014-02-20,,,
서울특별시,용산구,숙명여자대학교어린이집,직장,정상,4310.0,서울특별시 용산구 청파로47길 100 사회교육관 1층(숙명여자대학교 제2캠퍼스),02-2077-7952,02-2077-7956,5,390,1,16,11,80,48,37.54547273221996,126.96507482960452,미운영,,2014-02-27,,,
서울특별시,용산구,더프라임어린이집,민간,정상,4315.0,"서울특별시 용산구 원효로90길 11 (원효로1가, 용산더프라임)",02-712-1880,02-714-1881,6,105,0,5,9,39,31,37.54039598047992,126.96971637235517,미운영,,2014-12-15,,,
서울특별시,용산구,지구촌어린이집,국공립,정상,4346.0,서울특별시 용산구 회나무로28길 13 ,02-797-7664,--,5,500,2,7,11,55,29,37.539379673754325,126.99219724016912,미운영,,2015-01-26,,,
서울특별시,용산구,순천향대학교서울병원어린이집,직장,정상,4420.0,서울특별시 용산구 독서당로20길 9-5 1층,02-795-1007,--,3,67,0,7,6,20,3,37.5316743,127.0048128,미운영,,2016-04-11,,,
서울특별시,용산구,샘물어린이집,국공립,정상,4361.0,서울특별시 용산구 원효로4가 원효로19길 49 ,02-701-0505,02-701-4900,5,179,1,8,13,62,50,37.53421027177274,126.9545941511218,미운영,,2016-10-01,,,
서울특별시,용산구,푸른꿈어린이집,국공립,정상,4355.0,"서울특별시 용산구 백범로 260 효창파크푸르지오아파트 104동, 1층",02-719-9989,02-719-9979,3,70,0,4,7,20,16,37.54023934237648,126.95833237770782,미운영,,2017-03-20,,,
서울특별시,용산구,새둥지어린이집,가정,정상,4422.0,서울특별시 용산구 이촌로65가길 3 110동 101호,02-796-5025,02-796-5024,4,81,0,7,7,20,17,37.5223116372,126.9719635243,미운영,,2017-03-27,,,
서울특별시,용산구,새순어린이집,국공립,정상,4361.0,"서울특별시 용산구 원효로35길 37-7 1,2층",02-716-7930,02-717-7930,3,130,1,9,10,40,26,37.5348941342334,126.95519141061648,미운영,,2017-07-01,,,
서울특별시,용산구,늘봄어린이집,국공립,정상,4374.0,서울특별시 용산구 이촌로2가길 122 105동 106호,02-702-2522,02-702-2523,3,59,0,5,8,20,17,37.5250472,126.9551678,미운영,,2017-04-14,,,
서울특별시,용산구,꿈나무어린이집,국공립,정상,4316.0,서울특별시 용산구 원효로1가 백범로 329 꿈나무어린이집,02-706-2468,02-706-2467,5,420,1,11,19,60,59,37.53839694143437,126.96579265701348,미운영,,2017-12-01,,,
서울특별시,용산구,용문어린이집,국공립,정상,4363.0,서울특별시 용산구 효창원로 88 브라운스톤용산 104-103,02-711-3136,02-715-3136,3,54,0,4,8,20,19,37.5364163,126.9591211,미운영,,2017-11-01,,,
서울특별시,용산구,아모레퍼시픽 서울어린이집,직장,정상,4386.0,서울특별시 용산구 한강대로 100 (주)아모레퍼시픽 2층,02-6040-5193,02-6040-5197,6,305,1,35,27,94,72,37.5287908187,126.9686757151,미운영,없음,2017-12-05,,,
서울특별시,용산구,맑은숲어린이집,국공립,정상,4417.0,서울특별시 용산구 한남대로40길 76 맑은숲어린이집,02-798-3500,02-798-3501,6,735,1,19,22,90,90,37.5450381635,127.0032951499,운영,,2017-12-26,,,
서울특별시,용산구,사랑나무어린이집,가정,정상,4336.0,서울특별시 용산구 후암로 4-8 후암동,02-2213-2929,--,5,125,0,5,8,20,17,37.54635357009264,126.97881652121346,미운영,,2018-03-05,,,
서울특별시,용산구,사랑꿈어린이집,국공립,정상,4368.0,서울특별시 용산구 원효로 216 관리동 1층,070-7767-6300,--,4,94,1,7,8,21,16,37.5367226428,126.9665271675,미운영,,2018-03-16,,,
서울특별시,용산구,삼일어린이집,직장,정상,4378.0,"서울특별시 용산구 한강대로 95 B동 4층 410호(한강로2가,래미안용산)",02-794-8831,02-794-8830,3,133,0,14,11,49,25,37.52954731337001,126.96739471952138,미운영,www.puruni.com/samil,2018-04-25,,,
서울특별시,용산구,동부이촌어린이집,국공립,정상,4421.0,서울특별시 용산구 이촌로 193 관리동 1층,02-797-7857,02-790-7857,3,59,0,4,9,22,22,37.5215935377,126.9683936564,미운영,,2018-09-01,,,
서울특별시,용산구,해늘어린이집,국공립,정상,4381.0,"서울특별시 용산구 이촌로34길 29 이촌동, 현대한강아파트 관리동",02-711-7847,--,5,82,0,9,10,31,28,37.5236368943,126.9566639649,미운영,,2018-09-01,,,
서울특별시,용산구,용산캐슬어린이집,국공립,정상,4317.0,"서울특별시 용산구 백범로 313 키즈클럽(효창동,롯데캐슬센터포레)",02-712-7942,02-712-7943,3,171,1,8,10,24,24,37.53981745015118,126.9630735859234,미운영,,2020-02-04,,,
서울특별시,용산구,용산소방서직장어린이집,직장,정상,4375.0,서울특별시 용산구 한강대로 167 용산소방서,02-749-6034,02-749-6035,3,99,0,22,10,18,15,37.53408944063891,126.971578961863,미운영,,2020-02-27,,,
서울특별시,용산구,국립중앙박물관 해누림 어린이집,직장,정상,4383.0,서울특별시 용산구 서빙고로 137 국립중앙박물관,02-2077-9048,02-2077-9969,4,246,0,20,10,39,18,37.5234949563665,126.97760123514485,미운영,,2020-03-06,,,
서울특별시,용산구,목멱어린이집,국공립,정상,4346.0,서울특별시 용산구 회나무로12나길 10 ,02-6954-2057,070-7543-1750,3,163,2,12,8,20,17,37.53904801482917,126.99092548482405,미운영,,2020-03-05,,,
서울특별시,용산구,큰나래어린이집,국공립,정상,4387.0,"서울특별시 용산구 서빙고로 17 102동 1,2,3층",02-797-7703,02-797-7702,5,191,3,25,18,70,66,37.52525530284135,126.9678957636705,미운영,,2020-09-11,,,
서울특별시,용산구,삼각지어린이집,국공립,정상,4375.0,"서울특별시 용산구 백범로99길 40 1,2층",02-797-9424,02-797-9425,5,207,1,25,14,48,48,37.53582388324484,126.97164618985347,미운영,,2021-03-17,,,
서울특별시,용산구,원효루미니어린이집,국공립,정상,4314.0,서울특별시 용산구 원효로97길 15 1층,02-713-4777,02-713-4778,4,91,0,13,12,32,30,37.54145907380427,126.96938101184236,미운영,,2022-07-01,,,
서울특별시,용산구,프린스술탄어린이집,가정,정상,4405.0,서울특별시 용산구 우사단로10길 39 1층,02-6953-7202,--,2,95,0,9,3,20,5,37.53324588964691,126.99733838615175,미운영,,2024-01-22,,,
서울특별시,용산구,데시앙아띠어린이집,국공립,정상,4311.0,서울특별시 용산구 효창원로 227 106동 1층,02-2581-2581,02-715-2582,3,87,0,8,5,25,5,37.54752995237479,126.96290569773326,미운영,,2023-12-26,,,
서울특별시,성동구,꿈터 어린이집,민간,정상,4805.0,서울특별시 성동구 용답중앙길 89-2 ,02-2242-2989,02-2242-9149,12,750,3,16,27,130,97,37.56233529965697,127.05515218881116,운영,,1997-11-21,,,
서울특별시,성동구,구립 홍익어린이집,국공립,정상,4700.0,서울특별시 성동구 마장로 141 (홍익동),02-2293-2596,02-2293-3443,9,600,2,20,23,124,78,37.567873934090784,127.02552709511713,미운영,,1982-10-01,,,
서울특별시,성동구,구립 금옥어린이집,국공립,정상,4731.0,서울특별시 성동구 매봉18길 1 (옥수동),02-2297-6738,02-2298-1639,10,386,1,36,26,133,107,37.54955905,127.0127112,미운영,,1983-01-02,,,
서울특별시,성동구,구립 연꽃어린이집,국공립,정상,4736.0,서울특별시 성동구 한림말길 16-5 ,02-2282-1105,02-2282-1103,7,301,1,11,20,120,74,37.54043785,127.012716,미운영,http://cafe.daum.net/yeunkot,1998-03-26,,,
서울특별시,성동구,구립 금봉어린이집,국공립,정상,4719.0,서울특별시 성동구 독서당로57가길 24 금봉어린이집,02-2291-5803,02-2291-5809,5,224,1,16,14,79,68,37.55361447,127.0277837,운영,http://cafe.daum.net/kbkids,1983-07-14,,,
서울특별시,성동구,구립 사근다솜어린이집,국공립,정상,4761.0,서울특별시 성동구 사근동길 37 (사근동),02-2281-3308,--,5,204,1,9,9,67,32,37.56105772,127.0455332,미운영,http://cafe.naver.com/ds22813308,2004-10-05,,,
서울특별시,성동구,구립 은행어린이집,국공립,정상,4745.0,서울특별시 성동구 고산자로10길 18 (행당동),02-2281-4477,02-2281-4479,4,183,1,9,13,64,58,37.55849856,127.0360811,미운영,,2002-03-14,,,
서울특별시,성동구,구립 대현어린이집,국공립,정상,4721.0,서울특별시 성동구 행당로 15 (금호동1가),02-2299-5935,02-2299-6935,5,170,2,12,16,79,51,37.55486873,127.0216773,미운영,http://iseoul.seoul.go.kr/homepage/main.do?stCode=11200000017,1983-09-01,,,
서울특별시,성동구,구립 마장어린이집,국공립,정상,4757.0,서울특별시 성동구 마장로44길 10 (마장동),02-2293-9394,02-2299-4872,7,358,1,20,32,116,102,37.56642292,127.0454704,미운영,,1981-11-04,,,
서울특별시,성동구,구립 금사어린이집,국공립,정상,4738.0,서울특별시 성동구 독서당로46길 26 (금호동4가),02-2293-4544,02-2293-4644,4,222,1,14,9,59,22,37.54715933,127.022319,미운영,,1995-02-08,,,
서울특별시,성동구,구립 성일어린이집,국공립,정상,4788.0,서울특별시 성동구 왕십리로16길 12-21 (성수동1가),02-464-5219,02-3409-4137,4,162,1,15,11,42,31,37.55048442,127.0464784,미운영,http://cafe.naver.com/sungilkids,1989-10-01,,,
서울특별시,성동구,구립 성수어린이집,국공립,정상,4792.0,서울특별시 성동구 광나루로2길 14 (성수동2가),02-498-6715,02-498-7512,4,127,2,12,9,20,16,37.54948034,127.0532689,미운영,http://cafe.daum.net/sungsukids,1995-08-21,,,
서울특별시,성동구,구립 금호어린이집,국공립,정상,4722.0,서울특별시 성동구 금호동2가 매봉18길 125 금호어린이집,02-2234-1382,02-2234-1366,5,211,1,14,10,62,34,37.55693619338755,127.01882676273539,미운영,,1985-11-29,,,
서울특별시,성동구,구립 무학어린이집,국공립,정상,4711.0,서울특별시 성동구 난계로 114-31 금호베스트빌아파트 임대관리동 (하왕십리동),02-2293-3067,02-2293-3063,5,129,1,16,12,59,38,37.56132356,127.025791,미운영,,1982-11-05,,,
서울특별시,성동구,구립 진터마루어린이집,국공립,정상,4774.0,서울특별시 성동구 둘레3길 18 (성수동1가),02-2205-5004,02-498-6794,6,192,1,16,13,96,49,37.53871802,127.0474124,미운영,http://jintu.kidis.co.kr,1999-11-11,,,
서울특별시,성동구,구립 용답어린이집,국공립,정상,4806.0,서울특별시 성동구 자동차시장길 22 용답어린이집,02-2245-8538,02-2245-8533,13,408,1,23,13,206,41,37.5616001,127.0563991,미운영,http://cafe.naver.com/yongdabkids,1983-07-15,,,
서울특별시,성동구,구립 응봉어린이집,국공립,정상,4742.0,서울특별시 성동구 독서당로60길 12-7 ,02-2295-1021,02-2295-1250,4,151,0,13,7,67,17,37.54894624,127.0305321,미운영,,2003-10-14,,,
서울특별시,성동구,구립 행당어린이집,국공립,정상,4717.0,서울특별시 성동구 행당로 82 한진2차아파트 관리동2층 (행당동),02-2295-3918,02-2299-1268,5,201,1,8,13,84,44,37.555641818356456,127.02636946091708,미운영,http://cafe.naver.com/hangdangkid,2000-01-21,,,
서울특별시,성동구,구립 도선어린이집,국공립,정상,4707.0,서울특별시 성동구 왕십리로30길 17-1 ,02-2297-9178,02-2296-9170,5,167,1,16,14,65,50,37.56607826,127.0305964,미운영,,1989-08-21,,,
서울특별시,성동구,성동구청 무지개 어린이집,직장,정상,4744.0,서울특별시 성동구 왕십리로 281 (행당동)1층,02-2291-6095,02-2281-6096,4,129,0,9,13,49,41,37.55927255,127.035418,미운영,sdrb0901@hanmail.net,2004-09-01,,,
서울특별시,성동구,구립 성덕어린이집,국공립,정상,4775.0,서울특별시 성동구 성수이로3길 14-7 ,02-464-9746,02-466-9748,3,89,1,8,6,44,14,37.53715143,127.0530548,미운영,http://cafe.naver.com/sungduk1004,1992-11-09,,,
서울특별시,성동구,본향어린이집,법인·단체등,정상,4721.0,서울특별시 성동구 난계로 61  -46 본향어린이집,02-2291-2350,--,5,227,1,8,15,79,76,37.55757731,127.0229887,운영,  (http://cafe.daum.net/bon2350),1996-07-25,,,
서울특별시,성동구,구립 서마어린이집,국공립,정상,4704.0,서울특별시 성동구 청계천로 546 (마장동),02-2293-5369,02-2293-5369,4,129,1,7,12,59,52,37.57169914,127.0368947,미운영,club.cyworld.com/seomastory,1981-09-01,,,
서울특별시,성동구,구립 성원어린이집,국공립,정상,4780.0,서울특별시 성동구 뚝섬로3길 18 (성수동1가),02-461-1690,02-461-1691,5,205,2,8,16,77,46,37.54188615,127.0496567,미운영,sw.ukid.kr,2005-12-05,,,
서울특별시,성동구,구립 동호어린이집,국공립,정상,4724.0,서울특별시 성동구 금호동3가 금호산9길 9 (금호동3가),02-2235-0914,02-2238-5578,6,250,1,20,15,85,61,37.54997053261757,127.0191113181978,미운영,http://cafe.daum.net/dongho1004,1982-12-27,,,
서울특별시,성동구,구립 금일어린이집,국공립,정상,4718.0,서울특별시 성동구 난계로 18 (금호동1가),02-2291-8629,02-2291-8628,5,254,2,20,21,91,80,37.55368497,127.0248605,미운영,cafe.daum.net/keum-il 구립금일어린이집,1983-09-12,,,
서울특별시,성동구,헤세드어린이집,법인·단체등,정상,4720.0,서울특별시 성동구 독서당로 375 (응봉동),02-2292-1191,02-2292-1191,4,157,2,5,8,79,12,37.55018028,127.0294975,운영,seiko0235@hanmail.net,1997-07-31,,,
서울특별시,성동구,구립 단비어린이집,국공립,정상,4804.0,서울특별시 성동구 용답중앙길 49 (용답동),02-2249-3215,070-8260-0384,5,183,1,12,10,57,24,37.56476418,127.0517421,미운영,,1998-06-30,,,
서울특별시,성동구,한양대학교 한양어린이집,직장,정상,4763.0,서울특별시 성동구 왕십리로 222-1 한양대학교 내,02-2220-1528,02-2296-1550,6,213,2,13,11,81,40,37.55889657,127.0361608,미운영,hychild.kidis.co.kr,1999-02-20,,,
서울특별시,성동구,성호 어린이집,민간,정상,4726.0,서울특별시 성동구 금호산12길 10 (금호동3가),02-2232-4215,02-2236-6070,5,296,1,8,9,69,34,37.55165106,127.0202583,운영,없음,1992-01-13,,,
서울특별시,성동구,구립 송화어린이집,국공립,정상,4800.0,서울특별시 성동구 송정18가길 29 (송정동),02-499-5292,02-465-7333,6,197,1,32,9,48,21,37.55493618,127.0692508,미운영,,1992-02-24,,,
서울특별시,성동구,예지어린이집,민간,정상,4705.0,서울특별시 성동구 마장로27가길 15 ,02-2292-8800,02-2292-8805,6,178,0,8,9,49,16,37.56691832,127.0352515,미운영,없음,1997-09-26,,,
서울특별시,성동구,구립 풍림아름다운어린이집,국공립,정상,4712.0,서울특별시 성동구 난계로 84 행당역풍림아이원아파트 관리동 (하왕십리동),02-2293-1005,02-2293-2055,3,85,0,6,10,32,29,37.55891341,127.025261,미운영,,2013-08-01,,,
서울특별시,성동구,구립 빛초롱어린이집,국공립,정상,4773.0,서울특별시 성동구 왕십리로 36 강변건영아파트 관리동 2층 (성수동1가),02-499-8599,02-499-8598,5,105,0,8,10,30,24,37.54034501,127.0450335,미운영,cafe.daum/kybitcholong,2013-01-01,,,
서울특별시,성동구,성동 어린이집,민간,정상,4728.0,서울특별시 성동구 금호동2가 무수막길 80 1층 (금호동2가),02-2231-9797,--,5,112,0,9,5,39,17,37.55289670136568,127.02073265262298,운영,없음,2002-11-28,,,
서울특별시,성동구,꼬마에디슨 어린이집,민간,정상,4718.0,서울특별시 성동구 금호동1가 금호로 100 벽산아파트 관리동,02-2293-8090,02-2293-8090,5,247,2,7,9,80,22,37.55192909,127.0271854,미운영,없음,2002-01-08,,,
서울특별시,성동구,구립 벽산어린이집,국공립,정상,4718.0,"서울특별시 성동구 금호동1가 행당로6길 2 (금호동1가, 금호벽산제2관리소 2층)",02-2296-3062,02-2299-4736,5,261,1,8,9,66,22,37.55539336125724,127.02537344855538,미운영,없음,2013-05-21,,,
서울특별시,성동구,하니삐아제 어린이집,민간,정상,4738.0,서울특별시 성동구 독서당로 272 대우아파트 관리사무소내 하니삐아제 어린이집,02-2297-9501,02-2296-9501,7,247,3,7,10,69,29,37.5459458,127.0195147,미운영,www.hami.ukid.kr,2003-01-21,,,
서울특별시,성동구,튼튼삐아제어린이집,민간,정상,4713.0,서울특별시 성동구 행당로 75 대림아파트제2관리소2층,02-2296-3071,02-2296-3072,5,312,1,9,9,62,31,37.55735443,127.0285183,미운영,,1999-11-03,,,
서울특별시,성동구,곤지잼잼 어린이집,민간,정상,4792.0,"서울특별시 성동구 성수동2가 성수일로10길 33 1층 (성수동2가, 성락교회)",02-468-0140,02-468-0180,7,261,1,9,17,79,77,37.54642410916674,127.05422613389923,미운영,http://jamjam.ukid.kr/,1995-02-23,,,
서울특별시,성동구,별초롱 어린이집,민간,정상,4774.0,서울특별시 성동구 성수동1가 성덕정길 25-96 ,02-468-0190,02-468-0190,5,210,0,5,8,39,14,37.53974058,127.0472851,미운영,,2005-01-27,,,
서울특별시,성동구,행복가득어린이집,민간,정상,4800.0,서울특별시 성동구 송정18가길 34 (송정동),02-498-7383,02-498-7383,7,193,0,9,6,39,7,37.55525641,127.0695253,운영,,1997-08-08,,,
서울특별시,성동구,딩동댕어린이집,민간,정상,4775.0,서울특별시 성동구 둘레13길 15 (성수동2가),02-497-1919,02-466-8195,4,122,0,7,10,46,20,37.53610286,127.052973,운영,http://dingdong.ukid.kr,2005-12-30,,,
서울특별시,성동구,즐거운어린이집,가정,정상,4776.0,서울특별시 성동구 둘레15길 15-1 ,02-469-9566,02-469-9566,3,59,0,7,2,19,7,37.53622527,127.0554313,미운영,joykids.ukid.kr,2005-01-20,,,
서울특별시,성동구,피노키오어린이집,민간,정상,4805.0,서울특별시 성동구 용답중앙15길 10 (용답동),02-2215-0526,02-2215-0526,3,98,0,3,8,23,13,37.56443411,127.0538392,미운영,,1992-04-17,,,
서울특별시,성동구,세림어린이집,가정,정상,4757.0,"서울특별시 성동구 마장로42길 16 6동 104호(마장동, 세림아파트)",02-2298-1553,02-2298-1553,3,84,1,4,6,20,7,37.56499505,127.0451705,미운영,https://blog.naver.com/serimc1009,2005-08-26,,,
서울특별시,성동구,아이꿈어린이집,가정,정상,4713.0,"서울특별시 성동구 행당로 79 122동 101호(행당동, 대림이편한세상아파트)",02-2291-1294,02-2291-1294,3,97,0,4,5,19,9,37.55735443,127.0285183,미운영,http://cafe.daum.net/aiccum,2003-04-01,,,
서울특별시,성동구,푸른숲어린이집,가정,정상,4703.0,"서울특별시 성동구 무학로 50 103동 101호(하왕십리동, 청계벽산아파트)",02-2296-4697,02-2296-4698,3,69,0,4,6,20,13,37.568527231122125,127.03087060035548,미운영,http://cafe.daum.net/22964697,2001-07-05,,,
서울특별시,성동구,아이사랑영재 어린이집,가정,정상,4746.0,"서울특별시 성동구 고산자로 164 102동 104호(행당동, 행당한신)",02-2299-4470,02-2299-4469,3,94,0,4,5,20,10,37.55648282746455,127.03527436002508,미운영,,2002-11-14,,,
서울특별시,성동구,하늘꿈 어린이집,가정,정상,4746.0,"서울특별시 성동구 고산자로 164 116동 104호(행당동, 한신아파트)",02-2298-9921,02-2298-9921,4,96,0,6,6,20,13,37.554427250291134,127.03659410615288,미운영,cafe.never.com/holydream,2003-12-29,,,
서울특별시,성동구,성동종합사회복지관 부설 방과후 어린이집,국공립,정상,4704.0,서울특별시 성동구 청계천로 506 성동종합사회복지관 부설 방과후어린이집 3층(늘푸른통합교실),02-2290-3163,--,1,93,0,1,8,20,20,37.57046833,127.0338088,미운영,http://omni.or.kr/　,1999-01-07,,,
서울특별시,성동구,서울숲미래연 어린이집,민간,정상,4740.0,서울특별시 성동구 금호로 15 서울숲푸르지오아파트 관리동 1층 (금호동4가),02-2298-4280,02-2298-4280,5,275,1,5,10,53,29,37.54472037,127.0223384,운영,www.cyworld.com,2003-04-03,,,
서울특별시,성동구,한빛 어린이집,가정,정상,4711.0,"서울특별시 성동구 행당로 79 110동 102호(행당동, 대림아파트)",02-2299-1567,02-2299-1567,3,57,0,4,9,20,20,37.56091399,127.0281359,미운영,http://cafe.naver.com/hanbit1004,1997-08-09,,,
서울특별시,성동구,라온어린이집,가정,정상,4753.0,"서울특별시 성동구 살곶이길 50 107동 102호(마장동, 현대아파트)",02-2297-9229,--,3,84,0,4,8,20,17,37.56952326,127.0424491,미운영,,2002-01-28,,,
서울특별시,성동구,두리두리어린이집,가정,정상,4710.0,"서울특별시 성동구 왕십리로31나길 22 3동 109호(하왕십리동, 한신무학아파트)",02-2295-5689,02-2295-5689,3,53,0,4,6,20,11,37.56257201,127.0281483,미운영,,1996-05-21,,,
서울특별시,성동구,고운꽃뜰 어린이집,가정,정상,4713.0,"서울특별시 성동구 행당로 79 120동 102호(행당동, 대림이편한세상아파트)",02-2293-2708,02-2293-2708,3,56,0,4,8,20,12,37.55735443,127.0285183,미운영,www.kidflower.co.kr,2005-04-08,,,
서울특별시,성동구,금빛 어린이집,가정,정상,4755.0,"서울특별시 성동구 마장로37길 7 101동 102호(마장동, 대성유니드아파트)",02-2291-0555,--,3,116,0,4,6,20,14,37.56682902,127.0387742,미운영,,2005-01-26,,,
서울특별시,성동구,옥수종합사회복지관 부설 좋은벗방과후교실어린이집,국공립,정상,4736.0,서울특별시 성동구 한림말길 16-5 옥수종합사회복지관 (옥수동),070-8110-3827,02-2282-1101,2,89,0,3,9,20,15,37.54043785,127.012716,미운영,www.oksoocwc.or.kr,2000-03-06,,,
서울특별시,성동구,사랑 어린이집,가정,정상,4703.0,"서울특별시 성동구 무학로 50 107동 107호(하왕십리동, 청계벽산아파트)",02-2294-2989,--,3,84,0,4,6,19,15,37.56869402,127.0320285,미운영,,2005-06-23,,,
서울특별시,성동구,건영아이자람어린이집,가정,정상,4800.0,"서울특별시 성동구 동일로 263 102동 101호(송정동, 건영아파트)",02-466-8417,02-466-8417,3,84,0,4,8,19,14,37.55592699,127.0708094,미운영,,2004-03-25,,,
서울특별시,성동구,꼬꼬마 어린이집,가정,정상,4724.0,"서울특별시 성동구 동호로 100 106동 101호(금호동3가, 두산아파트)",02-2254-4248,02-2254-4248,3,84,0,4,6,20,11,37.54989044,127.0162502,미운영,,1999-03-26,,,
서울특별시,성동구,아이나무어린이집,가정,정상,4757.0,"서울특별시 성동구 마장로42길 16 1동 106호(마장동, 세림아파트)",02-2281-4543,02-2299-9046,3,84,0,4,9,20,16,37.56499505,127.0451705,미운영,http://cafe.daum.net/sora-sora,1997-03-24,,,
서울특별시,성동구,구립 성모어린이집,국공립,정상,4704.0,서울특별시 성동구 청계천로 506 (성동종합사회복지관3층),02-2290-3182,02-2291-3182,4,162,1,10,16,77,31,37.57046833,127.0338088,미운영,sungmochildkid.co.kr,1993-12-21,,,
서울특별시,성동구,꿈나무 어린이집,가정,정상,4734.0,"서울특별시 성동구 독서당로 218 104동 103호(옥수동, 삼성아파트)",02-2294-3297,02-2294-3297,3,103,0,4,7,20,20,37.54224776,127.0141915,미운영,,2009-02-02,,,
서울특별시,성동구,또또 어린이집,가정,정상,4717.0,"서울특별시 성동구 행당로 82 111동 101호(행당동, 해모로한진타운)",02-2281-8992,02-2281-8992,3,84,0,4,7,20,20,37.55593461,127.0290936,미운영,,1999-06-14,,,
서울특별시,성동구,구립 한솔어린이집,국공립,정상,4767.0,서울특별시 성동구 왕십리로11길 19 서울숲복합문화체육센터 1층,02-462-4691,02-466-4691,6,283,1,18,19,98,73,37.5500454,127.0458943,미운영,http://cafe.daum.net/97hansol,1997-10-02,,,
서울특별시,성동구,구립 행응어린이집,국공립,정상,4719.0,서울특별시 성동구 독서당로63길 34 (행당동),02-2293-4870,02-2293-4500,8,260,1,16,17,101,88,37.55314657,127.031151,운영,http://cafe.daum.net/hangengkid,1984-02-05,,,
서울특별시,성동구,푸르지오 어린이집,가정,정상,4738.0,"서울특별시 성동구 금호동4가 독서당로 272 102동 101호(금호동4가, 금호동대우아파트)",02-2235-2026,02-2235-2026,3,84,0,4,7,20,17,37.5459458,127.0195147,미운영,,2008-07-04,,,
서울특별시,성동구,짐키드어린이집,가정,정상,4717.0,"서울특별시 성동구 행당로 82 105동 104호(행당동, 해모로한진타운)",02-2281-5056,02-2281-5056,3,84,0,4,7,19,15,37.55593461,127.0290936,미운영,,2009-08-21,,,
서울특별시,성동구,엔젤어린이집,가정,정상,4717.0,"서울특별시 성동구 행당로 82 113동 103호(행당동, 해모로한진타운)",02-2282-5004,02-2282-5004,3,84,0,4,5,19,11,37.55593461,127.0290936,미운영,http://club.cyworld.com/angelkid,2009-08-31,,,
서울특별시,성동구,아이원어린이집,가정,정상,4712.0,"서울특별시 성동구 난계로 84 107동 101호(하왕십리동, 풍림아이원아파트)",02-2282-2183,02-2282-2183,3,84,0,4,5,20,12,37.55891341,127.025261,미운영,,2009-09-23,,,
서울특별시,성동구,엘림몬테소리어린이집,가정,정상,4718.0,"서울특별시 성동구 금호로 100 101동 103호(금호동1가, 벽산아파트)",02-2291-2769,--,3,75,0,4,4,19,8,37.55052389208908,127.02749931686094,미운영, 네이버 엘림몬테소리 어린이집,2009-05-25,,,
서울특별시,성동구,힐스테이트 어린이집,민간,정상,4780.0,서울특별시 성동구 성수일로4길 26 서울숲힐스테이트 아파트 단지내 관리노인정 1층 (성수동2가),02-466-5331,--,3,141,1,5,11,28,24,37.54123386,127.0521307,미운영,다음카페(힐스테이어린이집),2010-06-17,,,
서울특별시,성동구,꼬마숲어린이집,가정,정상,4746.0,"서울특별시 성동구 고산자로 164 105동 103호(행당동, 행당한신)",070-4312-3954,02-2297-3954,3,84,0,4,6,19,14,37.55519044,127.0361429,미운영,,2011-01-27,,,
서울특별시,성동구,둥지어린이집,가정,정상,4713.0,"서울특별시 성동구 행당로 79 131동 102호(행당동, 행당대림아파트)",02-6464-9595,02-6464-9595,3,71,0,4,6,20,12,37.55816852103366,127.02891118552655,미운영,,2011-04-27,,,
서울특별시,성동구,디즈니 어린이집,가정,정상,4720.0,"서울특별시 성동구 독서당로 377 107동 102호(응봉동, 금호현대)",02-6212-5353,--,3,66,0,4,8,20,17,37.55099268,127.0309922,미운영,,2011-06-30,,,
서울특별시,성동구,한양키움 어린이집,민간,정상,4756.0,서울특별시 성동구 마장로39길 48 (마장동),02-2294-0195,02-2281-5532,5,172,0,7,2,40,0,37.5688284264638,127.0444940795518,운영,,2011-10-17,,,
서울특별시,성동구,구립 동아어린이집,국공립,정상,4747.0,서울특별시 성동구 고산자로2길 13 구립동아어린이집,02-2294-1230,02-2294-1235,3,75,0,10,10,27,24,37.55249791305594,127.03654936275028,미운영,,2011-10-01,,,
서울특별시,성동구,구립 행당푸르지오어린이집,국공립,정상,4716.0,서울특별시 성동구 고산자로 177 ,02-2295-1220,02-2295-1221,3,80,0,10,10,30,28,37.555767556041744,127.0335586010168,미운영,,2011-12-05,,,
서울특별시,성동구,아이뜰어린이집,가정,정상,4747.0,서울특별시 성동구 고산자로 160 대림강변아파트 112-101,02-6219-0536,--,3,57,0,4,7,19,18,37.55378856524229,127.03505612372476,미운영,,2012-01-19,,,
서울특별시,성동구,엄마맘어린이집,가정,정상,4728.0,"서울특별시 성동구 금호로 107 103동 102호 (금호동2가, 래미안하이리버)",02-2233-2235,--,3,93,0,4,7,20,18,37.55198184825223,127.0247752056073,미운영,,2012-05-29,,,
서울특별시,성동구,구립 사과꽃어린이집,국공립,정상,4728.0,서울특별시 성동구 금호로 111 (금호동2가) 래미안하이리버 임대동 1층,02-2231-0469,02-2231-0469,4,93,0,6,8,30,18,37.55187762973275,127.02321799468584,미운영,,2012-09-01,,,
서울특별시,성동구,토토어린이집,가정,정상,4737.0,"서울특별시 성동구 금호동4가 금호로 17 203동 104호(금호동4가, 서울숲2차푸르지오)",02-6326-3977,02-6326-3977,3,95,0,4,5,20,11,37.54688100208012,127.02407148156236,미운영,,2012-09-19,,,
서울특별시,성동구,구립 금호자이미소어린이집,국공립,정상,4728.0,서울특별시 성동구 금호로 117 (금호동2가) 금호자이1차아파트 관리동 1층 (104동 앞),02-2233-7737,02-2233-7737,5,114,0,11,10,43,37,37.5526759311274,127.02328738538549,미운영,,2012-09-24,,,
서울특별시,성동구,으뜸꼬마숲어린이집,가정,정상,4718.0,"서울특별시 성동구 금호동1가 독서당로 343 203동 102호 (금호동1가, 삼성래미안아파트)",02-2293-3555,02-2296-3555,3,85,0,4,5,20,8,37.54904626523365,127.0274535085331,미운영,,2012-10-08,,,
서울특별시,성동구,구립 왕십리어린이집,국공립,정상,4750.0,서울특별시 성동구 고산자로 262 구립 왕십리어린이집,02-2293-2010,02-2293-2013,6,257,1,13,19,93,68,37.56236558379405,127.03645438119608,미운영,,2012-09-30,,,
서울특별시,성동구,예인꼬마숲어린이집,가정,정상,4740.0,서울특별시 성동구 금호동4가 금호로 15 서울숲푸르지오 1차 105동 102호,02-2296-8665,--,3,86,0,4,7,20,15,37.54696887188501,127.0240584793865,미운영,꼬마숲어린이집 금호동점,2012-10-12,,,
서울특별시,성동구,아이으뜸어린이집,가정,정상,4739.0,"서울특별시 성동구 뚝섬로 51 102동 101호(옥수동, 옥수풍림아이원)",02-2297-4650,02-2297-4650,3,56,0,4,6,20,20,37.54203222124213,127.0194765936418,미운영,,2012-11-02,,,
서울특별시,성동구,구립 래미안리버젠어린이집,국공립,정상,4733.0,서울특별시 성동구 매봉길 15 래미안리버젠아파트 관리동,02-2291-2013,02-2291-2014,7,270,1,20,19,102,85,37.54519202243856,127.0165436781677,미운영,,2013-02-08,,,
서울특별시,성동구,구립 래미안하이리버어린이집,국공립,정상,4728.0,서울특별시 성동구 금호동2가 금호로 107 래미안하이리버아파트 관리동,02-2237-2255,02-2237-2992,4,192,1,8,9,47,30,37.55129938974688,127.0246025244422,미운영,,2013-03-04,,,
서울특별시,성동구,구립 금호자이햇살어린이집,국공립,정상,4729.0,서울특별시 성동구 금호동3가 금호산8길 14 금호자이2차아파트 내,02-2231-1432,02-2231-1433,3,116,0,8,8,27,24,37.54993201039732,127.02016652642556,미운영,,2013-03-01,,,
서울특별시,성동구,아기나무어린이집,가정,정상,4713.0,"서울특별시 성동구 행당로 87 107동 103호 (행당제2동, 대림아파트)",02-2296-2301,--,3,60,0,4,4,13,6,37.557430165352095,127.02885121454092,미운영,,2013-03-25,,,
서울특별시,성동구,구립 서울숲어린이집,국공립,정상,4737.0,서울특별시 성동구 금호동4가 금호로 17 서울숲 푸르지오2차 관리동,02-2295-2333,02-2295-4333,4,149,1,9,9,45,33,37.54623594007473,127.02380874426464,미운영,seoul2333@hanmail.net,2013-03-12,,,
서울특별시,성동구,한울어린이집,가정,정상,4734.0,"서울특별시 성동구 독서당로 218 110-102(옥수동, 옥수삼성아파트)",02-2291-0903,02-2295-0903,3,114,0,4,8,20,18,37.54263101168614,127.01555258882178,미운영,,2013-04-30,,,
서울특별시,성동구,구립 독서당어린이집,국공립,정상,4733.0,서울특별시 성동구 매봉길 17 래미안리버젠 2단지,02-2299-2929,02-2299-2928,3,119,0,5,8,26,23,37.54650054479592,127.01447540563646,미운영,,2013-05-20,,,
서울특별시,성동구,우리은행어린이집,직장,정상,4799.0,서울특별시 성동구 성수동2가 광나루로 324 우리은행 화양동지점,02-463-5015,02-463-5016,3,175,1,8,9,49,10,37.54793914736378,127.06573806903644,미운영,http://moamom051.kiznet.co.kr/myroom/medication.do,2013-09-11,,,
서울특별시,성동구,구립 금삼어린이집,국공립,정상,4726.0,서울특별시 성동구 금호동3가 금호산길 14 ,02-2233-6670,--,6,300,2,20,12,85,47,37.549224402356856,127.0197403192438,미운영,,2013-10-24,,,
서울특별시,성동구,구립 성삼보듬이나눔이어린이집,국공립,정상,4795.0,서울특별시 성동구 성수동2가 광나루로 242-17 ,02-466-3028,02-467-3028,4,220,1,19,7,45,17,37.54875479737704,127.05656351125164,미운영,,2013-12-02,,,
서울특별시,성동구,도담아이 어린이집,가정,정상,4713.0,"서울특별시 성동구 행당로 79 119동 103호(행당동, 대림아파트)",02-6213-5410,02-6213-5410,3,61,0,4,6,20,20,37.5582039955,127.0275066662,미운영,,2014-02-13,,,
서울특별시,성동구,구립 극동그린어린이집,국공립,정상,4732.0,서울특별시 성동구 독서당로 175 ,02-2281-9297,02-2281-9296,4,297,2,4,11,59,43,37.54161760767591,127.00981258057917,미운영,,2014-05-01,,,
서울특별시,성동구,센트라스어린이집,가정,정상,4701.0,"서울특별시 성동구 왕십리로 410 122동 102호(하왕십리동, 센트라스)",02-2299-1025,02-2299-1025,3,57,0,4,6,20,13,37.56577204358984,127.02792513518284,미운영,,2014-05-07,,,
서울특별시,성동구,샛별어린이집,가정,정상,4788.0,"서울특별시 성동구 성수동1가 상원길 63 101동 103호(성수동1가, 쌍용아파트)",02-498-5579,02-498-5579,3,54,0,4,6,20,19,37.55013567374597,127.04710846102176,미운영,,2014-08-19,,,
서울특별시,성동구,구립 성이어린이집,국공립,정상,4776.0,서울특별시 성동구 성수동2가 성수이로6길 10-2 ,02-464-5757,02-464-5454,4,118,1,12,9,44,29,37.53645865172598,127.05509239366904,미운영,sunge2014@hanmail.net,2014-07-31,,,
서울특별시,성동구,구립 왕도어린이집,국공립,정상,4707.0,서울특별시 성동구 무학로6길 9 ,02-2299-3889,02-2299-3881,4,140,1,8,10,44,23,37.565483149384654,127.03112684805096,미운영,http://cafe.daum.net/wangdokid,2014-07-31,,,
서울특별시,성동구,구립 양지어린이집,국공립,정상,4701.0,서울특별시 성동구 난계로 160 ,02-2299-9312,02-2299-9313,3,200,0,9,9,49,23,37.56600378593255,127.02400519240872,미운영,,2014-08-05,,,
서울특별시,성동구,구립 마장현대어린이집,국공립,정상,4753.0,서울특별시 성동구 마장로35길 76 마장현대아파트 관리동 1층,02-2281-9281,02-2281-9281,5,252,3,8,13,76,50,37.57026226862831,127.04199563032738,미운영,,2014-12-01,,,
서울특별시,성동구,구립 매봉도담어린이집,국공립,정상,4731.0,서울특별시 성동구 매봉길 88 ,02-2293-3330,02-2295-3330,4,214,1,8,12,49,33,37.54921091931142,127.01301385181564,미운영,,2015-01-09,,,
서울특별시,성동구,구립 텐즈힐두리어린이집,국공립,정상,4700.0,서울특별시 성동구 마장로 137 ,02-2296-8200,02-2296-8201,3,213,0,13,10,42,35,37.57022718113768,127.02411351777054,미운영,,2015-01-08,,,
서울특별시,성동구,구립 서울숲더샵어린이집,국공립,정상,4765.0,서울특별시 성동구 왕십리로 241 서울숲더샵아 1층,02-2296-2014,02-2296-2015,3,179,1,7,12,41,36,37.55707596986649,127.04002802387969,미운영,,2014-11-26,,,
서울특별시,성동구,구립 우리어린이집,국공립,정상,4714.0,서울특별시 성동구 왕십리로21길 26-1 3층,02-2295-7940,02-2295-7945,4,186,0,14,10,45,24,37.56041574165744,127.03188984250288,미운영,키즈노트활용,2015-03-02,,,
서울특별시,성동구,구립 가람어린이집,국공립,정상,4741.0,서울특별시 성동구 독서당로62길 43 6동 105호,02-2297-3462,02-2297-3463,3,113,1,4,10,20,19,37.55189906037326,127.03352488585598,미운영,,2015-10-01,,,
서울특별시,성동구,구립 금호키움어린이집,국공립,정상,4711.0,서울특별시 성동구 난계로 114-31 104-102(하왕십리동),02-2292-2240,02-2292-2241,3,78,1,4,9,20,19,37.56123169760994,127.0259503934554,미운영,15kium@naver.com,2015-10-01,,,
서울특별시,성동구,구립 별하어린이집,국공립,정상,4753.0,서울특별시 성동구 마장로39길 31 ,02-2291-4191,--,5,127,1,6,9,48,45,37.56821129420416,127.04285474303244,미운영,,2015-11-01,,,
서울특별시,성동구,구립 꽃초롱어린이집,국공립,정상,4701.0,서울특별시 성동구 마장로 164 ,02-2291-3260,--,5,176,1,16,9,64,41,37.56677059772877,127.02781769400914,미운영,,2015-12-01,,,
서울특별시,성동구,구립 송정햇살어린이집,국공립,정상,4801.0,서울특별시 성동구 송정12길 1 ,02-467-5002,02-466-7368,6,254,1,13,16,95,65,37.55014853790305,127.06548199247318,미운영,,2015-12-01,,,
서울특별시,성동구,구립 새솔어린이집,국공립,정상,4728.0,서울특별시 성동구 금호동2가 금호로 107 105동 102호,070-8111-3067,070-8181-3067,4,62,1,5,9,20,20,37.55227254354976,127.02423617821113,미운영,,2015-12-01,,,
서울특별시,성동구,구립 신금호자이어린이집,국공립,정상,4722.0,서울특별시 성동구 금호동2가 금호로 173 신금호파크자이 관리동,02-2234-1700,02-2234-0983,5,171,1,16,12,45,28,37.55613330844247,127.0194207263147,미운영,,2016-02-25,,,
서울특별시,성동구,구립 옥수파크어린이집,국공립,정상,4731.0,"서울특별시 성동구 매봉길 50 110동 (옥수동, 옥수파크힐스 1단지)",02-2282-3241,02-2282-3242,4,121,0,7,12,41,38,37.548535051683615,127.01404917490554,미운영,,2016-09-09,,,
서울특별시,성동구,구립 옥수힐스어린이집,국공립,정상,4731.0,"서울특별시 성동구 매봉길 50 (옥수동, 옥수파크힐스 2단지)",02-2281-7979,--,4,145,0,6,12,45,33,37.5472936889,127.0121218096,미운영,,2016-09-09,,,
서울특별시,성동구,구립 센트라스라온어린이집,국공립,정상,4701.0,"서울특별시 성동구 왕십리로 410 129동(하왕십리동, 센트라스)",02-2296-3002,02-2299-3002,3,158,0,6,10,28,25,37.564993681593776,127.02845541242355,미운영,,2017-01-20,,,
서울특별시,성동구,구립 센트라스으뜸어린이집,국공립,정상,4701.0,"서울특별시 성동구 왕십리로 410 하왕십리동, 센트라스 128동",02-2282-4650,--,3,226,0,13,8,40,20,37.56538646789382,127.02466375075215,미운영,,2017-01-20,,,
서울특별시,성동구,구립 센트라스아띠어린이집,국공립,정상,4701.0,"서울특별시 성동구 왕십리로 410 하왕십리동, 센트라스 101동",02-2292-2295,02-2292-2201,4,130,0,12,13,49,40,37.567048919922776,127.02410966343004,미운영,atti2018@naver.com,2017-01-20,,,
서울특별시,성동구,구립 센트라스나래어린이집,국공립,정상,4701.0,"서울특별시 성동구 왕십리로 410 하왕십리동, 123동",02-2291-2017,--,4,137,1,13,11,51,41,37.56575098539533,127.02644659677028,미운영,,2017-01-20,,,
서울특별시,성동구,구립 극동미라주어린이집,국공립,정상,4721.0,"서울특별시 성동구 난계로 73 101동 110호(하왕십리동, 극동미라주 아파트)",02-2295-4002,02-2295-4002,3,84,0,5,7,20,10,37.5550741212539,127.02667482741826,미운영,,2017-01-20,,,
서울특별시,성동구,서울시설공단 누비어린이집,직장,정상,4707.0,서울특별시 성동구 왕십리로26길 29 ,02-2298-2800,02-2298-2600,4,136,1,16,11,48,25,37.5656916752,127.0329877595,운영,,2017-04-26,,,
서울특별시,성동구,구립 왕십리자이어린이집,국공립,정상,4711.0,서울특별시 성동구 난계로 100 ,02-2296-0901,02-0000-0000,5,222,1,14,11,50,40,37.56066971614554,127.02483196774352,미운영,,2017-07-24,,,
서울특별시,성동구,서울교통공사 어린이집,직장,정상,4806.0,서울특별시 성동구 자동차시장길 22 인재개발원 1층,02-6110-8093,02-6110-8098,4,150,0,12,10,49,16,37.56179409647753,127.05643302079544,미운영,https://blog.naver.com/metrokids1,2017-09-27,,,
서울특별시,성동구,구립 이편한세상금호어린이집,국공립,정상,4727.0,"서울특별시 성동구 금호로 140 (금호동1가, e편한세상 금호파크힐스아파트 104동 앞)",02-2282-2018,--,3,146,1,7,9,43,35,37.55532274466242,127.02260634065662,미운영,http://cafe.daum.net/i-love2018,2017-12-14,,,
서울특별시,성동구,구립 힐스테이트서울숲리버어린이집,국공립,정상,4743.0,서울특별시 성동구 금호동4가 금호로 40 힐스테이트서울숲리버아파트 관리동,02-2295-7100,02-2295-7101,5,206,1,11,13,60,42,37.5467040992,127.0255334536,미운영,,2017-12-14,,,
서울특별시,성동구,구립 텐즈아이어린이집,국공립,정상,4702.0,"서울특별시 성동구 무학로 33 114동 1층 (하왕십리동, 텐즈힐1단지)",02-2282-2114,02-2282-2115,6,225,1,16,15,70,52,37.5691639797,127.0263470607,미운영,,2017-12-05,,,
서울특별시,성동구,구립 맑은샘어린이집,국공립,정상,4731.0,서울특별시 성동구 매봉길 51 (옥수동 528-2),02-2293-0509,02-2297-8701,5,203,1,16,13,68,38,37.5465907739,127.0133800346,미운영,,2018-02-12,,,
서울특별시,성동구,구립 트리마제어린이집,국공립,정상,4773.0,"서울특별시 성동구 성수동1가 왕십리로 16 관리동 (성수동1가, 트리마제)",02-465-7717,02-465-7718,3,90,1,6,11,34,31,37.5392561544,127.0446711778,미운영,www.kidsnote.com,2018-01-08,,,
서울특별시,성동구,구립 서울숲리버뷰자이어린이집,국공립,정상,4745.0,서울특별시 성동구 고산자로2길 65 행당동 100번지일대(행당6구역),02-2293-7770,02-2293-7730,7,265,10,13,17,98,51,37.556326708,127.0389275652,미운영,,2018-02-02,,,
서울특별시,성동구,구립 스위첸숲속어린이집,국공립,정상,4711.0,서울특별시 성동구 무학봉길 35 ,02-2282-2847,02-2282-2840,3,57,0,7,9,20,19,37.5606043973,127.0268737341,미운영,,2018-10-25,,,
서울특별시,성동구,구립 성수롯데캐슬어린이집,국공립,정상,4794.0,"서울특별시 성동구 성수동2가 성수일로8길 47 관리동 (성수동2가, 성수동 롯데캐슬파크)",02-499-1177,02-468-8846,3,58,0,8,8,20,19,37.54624562624995,127.05538023082865,미운영,kidsnote,2019-02-01,,,
서울특별시,성동구,구립 해온어린이집,국공립,정상,4768.0,서울특별시 성동구 성수동1가 왕십리로5길 3 ,02-462-6738,02-462-6739,3,69,0,8,10,26,26,37.54632010842336,127.04435854597293,미운영,,2019-03-25,,,
서울특별시,성동구,구립 행당한신어린이집,국공립,정상,4746.0,"서울특별시 성동구 고산자로 164 관리동 2층(행당동, 행당한신)",02-2291-0079,--,4,106,1,7,8,40,27,37.55620480381817,127.03549435337251,미운영,,2020-01-31,,,
서울특별시,성동구,구립 왕십리하나어린이집,국공립,정상,4714.0,서울특별시 성동구 무학봉16길 9-3 ,02-2296-3990,02-2292-9326,10,364,2,24,8,135,62,37.56085493726033,127.03203886341048,운영,,2020-03-01,,,
서울특별시,성동구,구립 성수아이파크어린이집,국공립,정상,4795.0,"서울특별시 성동구 성수이로 137 관리동 1층 (성수동2가, 성수동아이파크)",02-469-5575,02-474-6432,4,82,0,6,11,31,25,37.54708974374037,127.05658035881122,미운영,,2020-03-01,,,
서울특별시,성동구,모두의 숲 어린이집,직장,정상,4790.0,서울특별시 성동구 상원6나길 22-7 ,02-463-0312,02-463-0316,5,152,0,55,14,49,28,37.54753875557011,127.04988720206627,미운영,,2020-04-27,,,
서울특별시,성동구,현대글로비스 서울숲 어린이집,직장,정상,4768.0,서울특별시 성동구 서울숲4길 5 ,02-462-2111,02-468-3111,3,58,0,24,9,17,10,37.54777508554885,127.04163928258352,미운영,,2021-10-26,,,
서울특별시,광진구,EQ어린이집,가정,정상,5015.0,서울특별시 광진구 동일로26길 41 (화양동),02-466-1071,02-466-1079,3,93,4,5,6,20,8,37.54489788042541,127.0682975161844,미운영,,2004-01-30,,,
서울특별시,광진구,즐거운산들어린이집,협동,정상,4957.0,서울특별시 광진구 자양로50길 74 (구의2동),02-458-7122,02-3436-7122,9,178,0,0,11,49,25,37.5527353548039,127.09631592982342,미운영,https://fskids.modoo.at,2003-12-31,,,
서울특별시,광진구,상상놀이터어린이집,가정,정상,5112.0,서울특별시 광진구 자양로6길 9 (자양동),02-6406-4947,02-446-4947,4,106,0,4,6,19,10,37.53208577711285,127.08644594687784,미운영,,2011-03-03,,,
서울특별시,광진구,해오름어린이집,가정,정상,4956.0,서울특별시 광진구 자양로50가길 41 (구의동),02-456-4242,02-3437-5910,4,116,0,4,3,20,4,37.55373881243763,127.09435709941354,미운영,,1996-02-14,,,
서울특별시,광진구,함초롬어린이집,민간,정상,4997.0,서울특별시 광진구 군자로 176 (군자동),02-463-8336,--,4,112,0,6,1,30,0,37.55621573120708,127.0778730453434,운영,,2004-06-01,,,
서울특별시,광진구,구립 자양4동어린이집,국공립,정상,5073.0,서울특별시 광진구 아차산로32길 17 (자양동),02-463-4959,02-462-4987,5,165,1,15,13,59,53,37.53913,127.06851,미운영,cafe.daum.net/nou4959,1993-10-15,,,
서울특별시,광진구,구립 자양2동어린이집,국공립,정상,5106.0,서울특별시 광진구 자양로3가길 26 (자양동),02-453-7587,02-453-7556,4,154,1,6,10,64,58,37.5288,127.08439,미운영,,2001-12-05,,,
서울특별시,광진구,푸르내어린이집,민간,정상,4945.0,서울특별시 광진구 긴고랑로36길 15 (중곡동),02-3436-3488,02-3436-3487,6,261,1,12,12,74,47,37.558348378141744,127.08951885086938,운영,,2006-03-02,,,
서울특별시,광진구,해든어린이집,민간,정상,5084.0,"서울특별시 광진구 능동로3마길 1 (자양동, 자양)",02-463-0942,02-468-8659,4,144,1,6,11,32,24,37.53433687809229,127.06421956563756,미운영,http://iseoul.seoul.go.kr/homepage/main.do?stCode=11215000016,1975-03-12,,,
서울특별시,광진구,구립 군자어린이집,국공립,정상,4999.0,서울특별시 광진구 동일로56가길 31 (군자동),02-461-2440,0505-491-2441,6,265,2,19,18,99,61,37.55457555853534,127.07269718914542,미운영,,1999-09-07,,,
서울특별시,광진구,예지어린이집,민간,정상,5003.0,서울특별시 광진구 광나루로15길 17 (군자동),02-467-3333,02-467-3333,5,212,1,8,6,58,18,37.54909584552267,127.0694464686963,미운영,,1994-02-05,,,
서울특별시,광진구,신나는어린이집,민간,정상,5041.0,서울특별시 광진구 광나루로40길 78 (구의동),02-453-2814,02-6084-1891,9,433,4,21,19,164,80,37.54134188850016,127.0886886984901,운영,,1993-06-28,,,
서울특별시,광진구,구립 자양어린이집,국공립,정상,5092.0,서울특별시 광진구 자양번영로 35 (자양동),02-452-0748,02-457-0306,7,531,1,16,21,96,91,37.532898,127.07523,미운영,,1982-08-28,,,
서울특별시,광진구,광진어린이집,민간,정상,5054.0,서울특별시 광진구 아차산로40길 9 (자양동),02-2201-0126,02-2201-0976,7,340,3,11,15,91,41,37.537193,127.07864,운영,iutv.co.kr/kwangjin,1993-09-03,,,
서울특별시,광진구,광진구청직장어린이집,직장,정상,5026.0,서울특별시 광진구 자양로 117 광진구청 1동 777호(자양동),02-450-1650,02-3425-1900,3,140,1,6,7,52,20,37.53872654013966,127.08201449858753,미운영,,2003-10-10,,,
서울특별시,광진구,구립 중곡샛별어린이집,국공립,정상,4901.0,서울특별시 광진구 동일로 458 (중곡동),02-435-4900,02-435-4901,12,334,1,24,30,131,109,37.570957,127.08026,미운영,http://jkstar.co.kr,1994-06-08,,,
서울특별시,광진구,구립 동서울어린이집,국공립,정상,5033.0,서울특별시 광진구 광나루로44길 23 (구의동),02-456-7295,02-456-7295,7,472,1,19,20,96,71,37.54314900194278,127.09146080786256,미운영,dseoul8813@naver.com,1998-03-31,,,
서울특별시,광진구,구립 수호천사어린이집,국공립,정상,4934.0,서울특별시 광진구 긴고랑로17길 8 (중곡동),02-447-2373,02-465-2373,5,110,0,10,9,40,40,37.562725,127.084236,미운영,https://cafe.naver.com/soohoangles,2023-03-01,,,
서울특별시,광진구,젬마어린이집,가정,정상,5015.0,서울특별시 광진구 동일로26길 51 (화양동),02-461-0788,--,4,81,0,8,6,20,9,37.544749850710296,127.06876811416656,운영,,2004-02-02,,,
서울특별시,광진구,아힘나어린이집,가정,정상,5086.0,"서울특별시 광진구 능동로3길 17 101동 106호(자양동, 한강성원아파트)",02-447-9335,--,4,52,0,4,9,19,17,37.5332454432866,127.06609626827746,미운영,,1996-04-01,,,
서울특별시,광진구,엄마사랑어린이집,민간,정상,4904.0,서울특별시 광진구 면목로 164 (중곡동),02-452-0804,02-467-0804,4,115,2,4,12,29,18,37.567726,127.08243,미운영,,2006-03-06,,,
서울특별시,광진구,구립 은성어린이집,국공립,정상,5084.0,서울특별시 광진구 동일로4길 52 (자양동),02-465-7476,02-465-7478,6,271,1,9,17,96,67,37.53569746384655,127.06373373346464,미운영,www.esbaby.ukid.kr,1999-09-10,,,
서울특별시,광진구,꼬꼬마어린이집,가정,정상,5046.0,"서울특별시 광진구 아차산로 451 101동 105호(구의동, 세림리오빌)",02-447-0739,--,4,83,0,4,6,20,19,37.53924542620672,127.09208522155836,미운영,,2005-01-31,,,
서울특별시,광진구,구립 효지어린이집,국공립,정상,5067.0,서울특별시 광진구 아차산로36길 55 (자양동),02-2201-0558,02-2201-1606,5,269,1,9,19,84,74,37.536102,127.07382,미운영,,1998-02-12,,,
서울특별시,광진구,구립 중앙어린이집,국공립,정상,5063.0,서울특별시 광진구 자양로13다길 31 (자양동),02-446-9066,02-446-9055,5,278,1,18,16,96,57,37.53294,127.07809,미운영,,1998-06-01,,,
서울특별시,광진구,동성어린이집,민간,정상,5073.0,서울특별시 광진구 아차산로30길 25-10 (자양동),02-465-8688,02-498-1280,5,300,1,5,0,55,0,37.5394614613,127.0676586874,운영,https://blog.naver.com/asor8282,1997-06-07,,,
서울특별시,광진구,구립 구의3동어린이집,국공립,정상,5117.0,서울특별시 광진구 광나루로54길 36 (구의동),02-457-9230,050-4155-8057,6,214,1,15,11,79,46,37.53934757684942,127.09511771345824,미운영,https://blog.naver.com/kids9230,1995-07-01,,,
서울특별시,광진구,구립 대원어린이집,국공립,정상,4950.0,서울특별시 광진구 자양로43길 115 (중곡동),02-3437-7173,02-3437-7174,4,190,1,8,9,44,32,37.55559176186261,127.08896332698151,미운영,,1999-03-02,,,
서울특별시,광진구,꿈나무어린이집,민간,정상,5039.0,서울특별시 광진구 자양로 134 (구의동),02-444-5449,02-2201-5449,5,162,0,5,1,35,0,37.53964456531301,127.0834502087732,미운영,,1993-03-02,,,
서울특별시,광진구,구립 중곡1동어린이집,국공립,정상,4915.0,서울특별시 광진구 능동로43길 27-14 (중곡동),02-498-2878,02-498-2868,5,366,2,12,14,85,54,37.560993,127.07966,미운영,,1999-05-01,,,
서울특별시,광진구,구의미소어린이집,민간,정상,4954.0,서울특별시 광진구 자양로 297 (구의2동),02-456-7336,02-456-7336,4,100,1,6,8,31,19,37.5522137026,127.0923318802,미운영,youngababy.ukid.kr,2001-10-26,,,
서울특별시,광진구,키즈용맹어린이집,민간,정상,4946.0,서울특별시 광진구 영화사로5길 15 (중곡동),02-453-5210,02-453-2215,7,192,1,15,17,72,69,37.55696283139807,127.09179110146076,운영,,1997-07-24,,,
서울특별시,광진구,구립 진성어린이집,국공립,정상,4940.0,서울특별시 광진구 용마산로 152 (중곡동),02-454-3166,02-457-4166,6,270,2,7,15,79,48,37.567162150678,127.0866541883676,미운영,,2004-08-31,,,
서울특별시,광진구,산위의마을어린이집,민간,정상,4926.0,서울특별시 광진구 용마산로7길 39 (중곡동),02-457-8953,02-457-8951,3,144,1,6,7,33,18,37.55948,127.08544,미운영,,2006-02-06,,,
서울특별시,광진구,구립 명성어린이집,국공립,정상,5040.0,서울특별시 광진구 아차산로55길 59 (구의동),02-2201-9696,02-2201-9697,6,337,1,12,8,69,26,37.540082217219975,127.08632920301,미운영,http://myungsungkid.kr/,1997-10-30,,,
서울특별시,광진구,키즈팜어린이집,민간,정상,5062.0,서울특별시 광진구 뚝섬로47길 33 (자양동),02-453-8030,02-453-0567,4,130,0,5,5,30,11,37.53391,127.0787,미운영,,2011-03-31,,,
서울특별시,광진구,구립 화송어린이집,국공립,정상,5012.0,서울특별시 광진구 능동로13길 108 (화양동),02-468-2336,02-468-2213,5,159,1,15,17,69,61,37.54619184186601,127.0680542481484,미운영,,1994-05-04,,,
서울특별시,광진구,보배어린이집,민간,정상,5067.0,"서울특별시 광진구 아차산로36길 39 3동 1호(자양동, 자양우성7차아파트)",02-457-1565,02-457-1569,5,249,1,6,10,48,40,37.53708104951532,127.07410165527595,미운영,,2005-01-28,,,
서울특별시,광진구,아이스쿨어린이집,가정,정상,4930.0,서울특별시 광진구 용마산로3길 91-4 (중곡동),02-447-0412,02-444-9406,3,74,0,7,5,20,11,37.557007,127.083,미운영,,2002-06-04,,,
서울특별시,광진구,으뜸어린이집,민간,정상,5095.0,서울특별시 광진구 능동로4길 88 (자양동),02-458-3372,02-458-3371,8,660,2,16,24,120,83,37.5308,127.071175,운영,https://www.iutv.co.kr/,2000-11-03,,,
서울특별시,광진구,지안어린이집,민간,정상,5102.0,서울특별시 광진구 뚝섬로58가길 26-4 (자양동),02-3436-3866,--,7,253,1,8,9,58,34,37.53051,127.08332,미운영,,2005-01-29,,,
서울특별시,광진구,구립 성심어린이집,국공립,정상,4925.0,서울특별시 광진구 용마산로3길 60 (중곡동),02-3437-2381,02-454-5770,6,367,1,15,18,91,70,37.556595,127.08499,미운영,sungsim5770@hanmail.net,1999-01-22,,,
서울특별시,광진구,구립 느티나무어린이집,국공립,정상,5022.0,서울특별시 광진구 광나루로26길 39 (화양동),02-444-2544,02-444-2547,4,131,1,10,10,51,20,37.54541090630658,127.07809286536164,미운영,,1998-02-17,,,
서울특별시,광진구,예아랑어린이집,민간,정상,4901.0,서울특별시 광진구 동일로 456 성수교회 2층 1호(중곡동),02-2207-5292,02-2207-5293,7,389,1,12,0,70,0,37.57070569322798,127.08022418924844,운영,http://yearang.co.kr/,1996-01-20,,,
서울특별시,광진구,아이사랑어린이집,가정,정상,5102.0,서울특별시 광진구 자양로3길 60 (자양동),02-2201-5151,02-2201-5151,4,85,0,4,0,18,0,37.529705,127.08326,미운영,,2011-03-25,,,
서울특별시,광진구,꿈동산어린이집,가정,정상,4996.0,"서울특별시 광진구 면목로4길 3 101호(군자동, 동산골든빌라)",02-462-0363,02-462-0363,3,69,0,0,3,18,8,37.55582044998648,127.076066401214,미운영,,2006-07-13,,,
서울특별시,광진구,조은어린이집,가정,정상,5058.0,서울특별시 광진구 뚝섬로57길 48 101호(극동하이빌),02-457-5529,02-457-5529,4,77,1,4,4,18,4,37.53483,127.08099,미운영,,2001-08-31,,,
서울특별시,광진구,구립 능동어린이집,국공립,정상,4988.0,서울특별시 광진구 천호대로114길 47 (능동),02-458-0670,02-458-0696,5,194,1,15,13,94,66,37.55357491350493,127.08196709028492,미운영,,1999-02-23,,,
서울특별시,광진구,구립 사랑의어린이집,국공립,정상,4974.0,서울특별시 광진구 아차산로66길 8 (광장동),02-2201-1049,02-2201-1048,6,267,1,8,18,99,73,37.54103267440077,127.09706601040868,미운영,,1994-04-01,,,
서울특별시,광진구,구립 구의2동어린이집,국공립,정상,4959.0,서울특별시 광진구 자양로44길 91 (구의동),02-446-6435,02-458-3157,7,304,3,16,11,59,37,37.55021263436195,127.09624936279256,미운영,,1996-05-29,,,
서울특별시,광진구,파크빌어린이집,민간,정상,4983.0,서울특별시 광진구 아차산로 549 현대파크빌단지내(광장동),02-456-5677,02-456-5677,4,175,1,6,11,48,34,37.54387933465931,127.10198056642628,운영,,2001-06-07,,,
서울특별시,광진구,중곡4동어린이집,민간,정상,4944.0,서울특별시 광진구 긴고랑로 149-8 (중곡동),02-2201-2704,--,5,250,1,11,12,81,55,37.55910367286204,127.09155694202092,운영,http://blog.naver.com/snoopybb,1989-08-01,,,
서울특별시,광진구,자양민들레어린이집,민간,정상,5108.0,서울특별시 광진구 뚝섬로52마길 32 (자양동),02-456-5003,02-456-5003,5,135,1,5,9,40,22,37.52885,127.080025,미운영,,2002-06-10,,,
서울특별시,광진구,구립 상명어린이집,국공립,정상,4902.0,서울특별시 광진구 동일로80길 30 (중곡동),02-464-5984,02-497-5984,5,346,2,7,14,65,53,37.56993,127.08142,미운영,,2005-12-31,,,
서울특별시,광진구,솔로몬어린이집,민간,정상,4906.0,서울특별시 광진구 긴고랑로7길 73 (중곡동),02-469-9976,02-466-9976,5,219,4,14,12,82,37,37.566563,127.080666,운영,http://isolomon22.co.kr,1998-06-11,,,
서울특별시,광진구,사랑어린이집,가정,정상,5070.0,서울특별시 광진구 뚝섬로35길 32 306동 102호(자양동),02-456-2910,024-562-910,4,81,0,4,7,19,17,37.5321,127.0704,미운영,jlmn1103@naver.com,2004-01-10,,,
서울특별시,광진구,아이자람어린이집,가정,정상,4974.0,"서울특별시 광진구 아차산로70길 62 304동 102호(광장동, 현대3단지아파트)",02-453-1486,02-453-1486,4,85,2,4,1,20,0,37.5403763909,127.0989931629,미운영,,2002-10-23,,,
서울특별시,광진구,현대몬테소리어린이집,가정,정상,5118.0,"서울특별시 광진구 광나루로56길 32 207동 106호(구의동, 구의현대2단지아파트)",02-452-8348,02-452-8348,4,85,0,4,8,20,18,37.5374556589018,127.09490716161916,미운영,cafe.naver.com/hdmontesori,1990-10-08,,,
서울특별시,광진구,해피i어린이집,가정,정상,5066.0,"서울특별시 광진구 아차산로36길 35 702-105(자양동,우성7차아파트 )",02-454-1565,02-457-1569,4,84,1,4,6,19,15,37.53708104951532,127.07410165527595,미운영,,2011-05-11,,,
서울특별시,광진구,용곡어린이집,가정,정상,4936.0,서울특별시 광진구 능동로48길 64 (중곡동) 운형빌라 101호,02-3437-6676,02-3437-6676,4,95,0,6,7,20,15,37.56177622736819,127.08604731534096,미운영,,1997-03-31,,,
서울특별시,광진구,꿈꾸는어린이집,가정,정상,4933.0,서울특별시 광진구 능동로50길 23 (중곡동),02-454-9797,-454-979,3,75,1,4,6,20,9,37.56383,127.0847,미운영,,2002-03-06,,,
서울특별시,광진구,자양미래몬테소리어린이집,가정,정상,5092.0,서울특별시 광진구 자양번영로3길 6 (자양동),02-457-3497,02-457-3497,3,96,0,5,1,20,0,37.531796,127.074745,미운영,http://cafe.daum.net/mile416,2002-02-01,,,
서울특별시,광진구,한울어린이집,민간,정상,4925.0,서울특별시 광진구 천호대로117길 51 (중곡동),02-458-7005,02-444-3560,4,184,2,8,8,70,38,37.5572235116531,127.08515349625566,미운영,,1997-03-03,,,
서울특별시,광진구,아이들세상어린이집,민간,정상,4926.0,서울특별시 광진구 긴고랑로26길 31 (중곡동),02-3436-4611,02-444-3560,6,156,1,9,9,43,25,37.5600545971,127.0845592781,미운영,,1999-03-02,,,
서울특별시,광진구,해달별어린이집,가정,정상,5048.0,"서울특별시 광진구 구의강변로3가길 39 701동 102호(구의동,7단지 현대아파트 )",02-3437-3373,--,4,85,0,4,7,19,13,37.53692140980595,127.09137186410766,미운영,,2000-02-01,,,
서울특별시,광진구,예일어린이집,민간,정상,4954.0,서울특별시 광진구 자양로47길 11 (구의2동),02-452-7639,--,4,146,0,7,8,49,24,37.55220550580402,127.09180213858552,미운영,yalekids.ukid.kr,2002-01-24,,,
서울특별시,광진구,아이짐어린이집,민간,정상,4977.0,서울특별시 광진구 광나루로37길 8 (구의2동),02-455-5220,02-6406-5221,4,154,0,6,8,39,22,37.54530700044164,127.08767037491802,미운영,kidsnote,2000-11-11,,,
서울특별시,광진구,키즈랜드어린이집,가정,정상,4936.0,서울특별시 광진구 능동로48길 56 (중곡동),02-453-0860,02-456-0860,4,110,0,5,1,20,0,37.56175845854066,127.08570208714656,미운영,,2004-12-31,,,
서울특별시,광진구,꼬마별어린이집,가정,정상,4952.0,"서울특별시 광진구 천호대로127길 33 103호(중곡동, 선화빌라11차)",02-456-3149,--,4,85,0,4,1,20,0,37.55412744278286,127.09045093878092,미운영,,2001-07-06,,,
서울특별시,광진구,리틀지니어스어린이집,민간,정상,5040.0,서울특별시 광진구 자양로26길 50 (구의동),02-444-0717,02-444-0717,5,107,1,5,9,31,21,37.5409973935446,127.08665158717898,미운영,,1993-05-21,,,
서울특별시,광진구,사임당어린이집,민간,정상,5055.0,서울특별시 광진구 아차산로46가길 23 (자양동) 101호,02-455-0883,02-6449-0882,6,139,2,11,12,27,20,37.53567044212679,127.08191164834594,미운영,www.aga24.net,1994-08-09,,,
서울특별시,광진구,대서울어린이집,가정,정상,5093.0,서울특별시 광진구 자양번영로3길 15 (자양동),02-457-9742,02-455-702,3,58,0,4,6,20,10,37.53170216274285,127.07421251828012,미운영,cafe.naver.com/lovelykids585,2004-09-01,,,
서울특별시,광진구,늘평화어린이집,민간,정상,4908.0,서울특별시 광진구 능동로51길 17 (중곡동),02-499-7758,02-499-7759,8,511,1,16,15,94,73,37.565952,127.083145,미운영,다음카페,2007-01-31,,,
서울특별시,광진구,좋은어린이집,민간,정상,5049.0,서울특별시 광진구 구의강변로3길 31 (구의동),02-454-8548,02-454-8985,8,356,1,10,7,35,11,37.53620501420417,127.09032103451588,미운영,,1986-02-27,,,
서울특별시,광진구,예랑어린이집,민간,정상,4955.0,서울특별시 광진구 자양로51길 11-12 (구의동),02-447-1477,02-447-1748,5,187,0,6,9,49,38,37.55332590991607,127.0923602825368,미운영,http://cafe.naver.com/loveyerang,2005-04-01,,,
서울특별시,광진구,꼬마사랑어린이집,가정,정상,4913.0,서울특별시 광진구 긴고랑로8길 14 (중곡동),02-464-6788,0303-3443-6787,4,77,0,4,6,16,12,37.562775,127.07862,미운영,,2005-01-28,,,
서울특별시,광진구,영화어린이집,민간,정상,4948.0,서울특별시 광진구 영화사로 105 (구의동),02-453-3308,02-447-6066,3,204,0,5,10,39,27,37.55405326841506,127.09772091076056,운영,,1995-05-02,,,
서울특별시,광진구,한라어린이집,민간,정상,5070.0,서울특별시 광진구 뚝섬로33길 20 (자양동),02-2201-1264,02-2201-1265,5,188,1,6,12,44,35,37.535292570837065,127.0695742434909,미운영,http://cafe.naver.com/hanra33,1996-05-01,,,
서울특별시,광진구,이삭어린이집,가정,정상,5094.0,서울특별시 광진구 뚝섬로40길 63-10 (자양동),02-453-5359,02-499-5359,5,124,0,6,5,20,7,37.5310514594656,127.07195621531775,미운영,,2011-03-31,,,
서울특별시,광진구,신예지어린이집,민간,정상,4954.0,서울특별시 광진구 자양로45길 16 (구의2동),02-458-8538,02-453-8538,4,141,0,5,8,39,17,37.55194632464166,127.09140347771005,미운영,http://cafe.naver.com/newyeji,1997-03-01,,,
서울특별시,광진구,다예린어린이집,민간,정상,4967.0,서울특별시 광진구 광장로 65 (광장동),02-455-2366,02-455-2366,4,154,1,6,10,35,32,37.54753175369659,127.10430751974648,운영,http://cafe.daum.net/다예린어린이집,2007-04-01,,,
서울특별시,광진구,나섬어린이집,가정,정상,4966.0,"서울특별시 광진구 광장로1나길 4 107호(광장동, 동부빌라)",02-6497-0033,02-444-0204,4,80,0,3,4,20,12,37.5486646724613,127.10283344096226,미운영,nasom.or.kr,2007-04-02,,,
서울특별시,광진구,향기나무어린이집,가정,정상,4971.0,서울특별시 광진구 아차산로 552 (광장동) 극동아파트 6동 105호,02-3436-3995,02-6925-3994,4,68,2,4,8,20,14,37.54672855764388,127.10374514721497,미운영,,2008-08-01,,,
서울특별시,광진구,아기천사어린이집,가정,정상,5092.0,"서울특별시 광진구 뚝섬로 576 201동 107호(자양동, 우성2차아파트)",070-7856-6645,--,4,80,0,4,7,18,15,37.5330303303644,127.073862401544,미운영,http://cafe.daum.net/babyangel2012,2012-04-30,,,
서울특별시,광진구,아이누리어린이집,가정,정상,5070.0,"서울특별시 광진구 뚝섬로33길 20 (자양3동, 한라아파트 101동 104호)",02-2201-1260,02-2201-1260,3,87,0,5,7,20,17,37.535292570837,127.06957424349,미운영,,2012-05-11,,,
서울특별시,광진구,워커힐행복어린이집,직장,정상,4963.0,서울특별시 광진구 워커힐로 177 (광장동),02-450-6500,02-450-6502,6,187,0,13,13,49,29,37.55613965501179,127.11051671913606,미운영,,2012-06-20,,,
서울특별시,광진구,아이비키즈어린이집,민간,정상,5070.0,"서울특별시 광진구 뚝섬로35길 14 (자양동, 한라아파트,  상가 B동 101호",02-446-1260,02-2201-1262,5,105,1,6,10,31,25,37.535118869758925,127.0707960160152,미운영,http://club.cyworld.com/iokkids,2012-08-20,,,
서울특별시,광진구,극동예랑어린이집,가정,정상,4971.0,"서울특별시 광진구 아차산로 552 6동 109호(광장동, 극동아파트)",02-454-1140,--,4,83,0,4,6,19,12,37.543677621103605,127.10600859979928,미운영,,2012-12-21,,,
서울특별시,광진구,고은아이어린이집,가정,정상,5087.0,서울특별시 광진구 능동로3길 53 1동 102호(자양동),02-464-1355,070-7625-1355,4,57,1,4,8,19,12,37.53422499599731,127.06451816250694,미운영,,2012-12-31,,,
서울특별시,광진구,포도나무어린이집,가정,정상,5108.0,"서울특별시 광진구 뚝섬로52마길 56 102동101호(자양동,로얄동아파트)",02-6212-0516,02-6212-0516,4,59,0,4,1,19,0,37.52809164117024,127.08138311158154,미운영,,2013-03-06,,,
서울특별시,광진구,현대아이사랑어린이집,가정,정상,5118.0,"서울특별시 광진구 광나루로56길 32 208동105호(구의동,구의현대아파트)",02-455-6780,02-455-6780,4,64,0,4,6,19,17,37.53782582239961,127.09622011418512,미운영,,2013-03-06,,,
서울특별시,광진구,아이다솜어린이집,가정,정상,4993.0,서울특별시 광진구 자양로33길 50 (구의동),02-456-3672,--,4,76,1,4,7,20,13,37.54787016646401,127.08664129665208,미운영,,2013-03-06,,,
서울특별시,광진구,군자티움아이어린이집,가정,정상,5002.0,서울특별시 광진구 동일로38길 8 1층(군자동),02-498-1279,070-8233-9998,3,84,0,4,6,20,14,37.551369684362776,127.06996119719744,미운영,,2013-04-05,,,
서울특별시,광진구,사랑숲어린이집,민간,정상,4947.0,서울특별시 광진구 영화사로9길 95-2 (중곡동),02-452-8877,02-452-8876,8,169,1,10,13,61,34,37.55779587125516,127.0956206489986,운영,http://cafe.naver.com/loveforest7,2013-05-01,,,
서울특별시,광진구,프라임사랑어린이집,가정,정상,5119.0,"서울특별시 광진구 광나루로56길 29 11동 102호(구의동, 현대프라임아파트)",02-456-1279,02-456-1279,4,68,0,4,7,20,20,37.53695344416799,127.09649055770689,미운영,,2013-05-30,,,
서울특별시,광진구,강변에코비어린이집,가정,정상,5116.0,서울특별시 광진구 구의강변로 42 101동 108호,02-3436-0260,02-3436-0260,4,53,0,4,4,19,10,37.535591611454045,127.09291783086698,미운영,,2013-09-02,,,
서울특별시,광진구,영인어린이집,가정,정상,4974.0,"서울특별시 광진구 아차산로 522 802동 101호 (현대아파트 8단지, 광장동)",02-444-2566,02-444-2566,4,78,0,4,1,19,0,37.54181078804712,127.09898600713645,미운영,,2013-08-29,,,
서울특별시,광진구,구립 희망샘어린이집,국공립,정상,4944.0,서울특별시 광진구 긴고랑로37길 8 (중곡동),02-458-1324,02-458-1325,4,128,0,8,16,48,46,37.55930799481833,127.0902083382545,미운영,키즈노트,2013-12-30,,,
서울특별시,광진구,구립 한가람어린이집,국공립,정상,5110.0,서울특별시 광진구 자양번영로2길 30-1 (자양동),02-452-2800,--,5,277,2,16,15,92,65,37.53007113268252,127.0766693254258,미운영,,2015-03-01,,,
서울특별시,광진구,구립 바니스쿨어린이집,국공립,정상,5118.0,서울특별시 광진구 광나루로56길 32 구의현대2단지아파트 215동 104호(구의3동),02-446-1347,02-446-1347,3,73,0,5,9,20,20,37.537338245740834,127.09568189059078,미운영,,2016-03-01,,,
서울특별시,광진구,구립 중곡햇님어린이집,국공립,정상,4935.0,"서울특별시 광진구 능동로48길 49 101호(중곡동, 웰빙아파트)",02-453-6132,02-453-6131,3,63,0,7,9,20,20,37.56201111410356,127.0851817335878,미운영,,2016-03-01,,,
서울특별시,광진구,구립 중곡1동 자람터어린이집,국공립,정상,4917.0,서울특별시 광진구 긴고랑로8길 76 ,02-469-7942,02-469-7944,5,169,2,23,18,62,52,37.5603868648636,127.07729259739236,미운영,,2017-03-01,,,
서울특별시,광진구,구립 능동 꿈맞이어린이집,국공립,정상,4987.0,서울특별시 광진구 천호대로120길 32 ,02-457-7532,02-455-7531,5,157,1,16,13,59,47,37.55279334326042,127.08596908498556,미운영,http://cafe.naver.com/dreamcomingkid,2017-03-01,,,
서울특별시,광진구,구립 휴먼시아어린이집,국공립,정상,4981.0,"서울특별시 광진구 천호대로 716 102동 102호(구의동, 휴먼시아아파트)",02-456-9709,070-4009-0630,3,92,1,5,9,20,20,37.5482735626,127.0935718071,미운영,,2017-03-01,,,
서울특별시,광진구,구립 원스쿨어린이집,국공립,정상,4984.0,서울특별시 광진구 아차산로69길 19 현대아파트 902동 104호,02-6451-8801,02-452-8801,3,84,2,4,8,20,19,37.5430009551,127.0979691902,미운영,,2017-03-01,,,
서울특별시,광진구,구립 구의1동 아이터어린이집,국공립,정상,5023.0,서울특별시 광진구 자양로23길 79 ,02-2201-8684,02-2201-8683,5,289,0,19,12,49,44,37.5438367,127.083768,미운영,,2017-09-01,,,
서울특별시,광진구,구립 굿모닝어린이집,국공립,정상,4971.0,"서울특별시 광진구 아차산로 552 2동105호(광장동, 광장극동아파트)",02-458-6169,02-458-6168,3,80,1,4,8,20,20,37.54258285625199,127.10278051118978,미운영,,2017-12-01,,,
서울특별시,광진구,구립 샘터어린이집,국공립,정상,4984.0,"서울특별시 광진구 아차산로 503-23 102동 102호(광장동,청구아파트)",02-456-4566,02-456-4568,4,85,1,5,7,20,13,37.5431614673,127.0956067292,미운영,,2017-12-01,,,
서울특별시,광진구,구립 예담어린이집,국공립,정상,4983.0,서울특별시 광진구 아차산로 537-17 광장힐스테이트 관리동,02-444-2008,--,3,63,0,4,8,20,20,37.5435747,127.098782,미운영,,2018-01-01,,,
서울특별시,광진구,구립 능동주민센터어린이집,국공립,정상,4989.0,서울특별시 광진구 천호대로112길 55 능동주민센터 1층(능동 232-4),02-452-1006,--,3,72,0,6,8,24,23,37.55367109806976,127.08060014630004,미운영,,2018-03-01,,,
서울특별시,광진구,구립 건대티움아이어린이집,국공립,정상,5090.0,"서울특별시 광진구 능동로4길 41 701동 101호(자양동, 자양7차현대홈타운)",02-499-1279,--,3,85,0,4,8,20,20,37.5329869,127.0697836,미운영,,2018-03-01,,,
서울특별시,광진구,구립 인정어린이집,국공립,정상,5001.0,서울특별시 광진구 동일로 242 (군자동),02-462-2758,070-4015-2758,4,95,0,8,8,28,19,37.55306493335688,127.07041421773184,미운영,,2018-03-01,,,
서울특별시,광진구,구립 군자동 꿈모음어린이집,국공립,정상,5004.0,서울특별시 광진구 군자로12길 6-4 (군자동 363-28),02-499-0011,02-499-0014,5,179,3,21,15,65,63,37.5508568417898,127.07149005029927,미운영,,2018-09-01,,,
서울특별시,광진구,구립 자양1동 봄뜰어린이집,국공립,정상,5058.0,서울특별시 광진구 자양로9길 30 (자양동 629-40),02-458-2260,0504-008-0136,5,174,1,16,10,65,31,37.533569421467725,127.08278332918296,미운영,,2018-09-01,,,
서울특별시,광진구,구립 파크스위트어린이집,국공립,정상,4978.0,"서울특별시 광진구 광나루로 545 110동 1층(구의동, 래미안파크스위트)",02-456-8546,02-457-8546,6,343,1,12,13,73,58,37.5452305351672,127.09056026719227,미운영,,2018-10-01,,,
서울특별시,광진구,구립 아띠어린이집,국공립,정상,5118.0,"서울특별시 광진구 광나루로56길 32 (구의동, 구의현대2단지아파트 213동 102호)",02-454-7911,02-454-7933,3,85,1,4,6,20,17,37.53781082437571,127.09623125571322,미운영,,2018-09-01,,,
서울특별시,광진구,구립 미래어린이집,국공립,정상,4984.0,"서울특별시 광진구 아차산로 503-23 104동 113호(광장동, 청구아파트)",02-447-4191,02-447-4192,3,91,0,4,9,20,20,37.5431614673,127.0956067292,미운영,,2018-12-01,,,
서울특별시,광진구,구립 베베아이어린이집,국공립,정상,4983.0,"서울특별시 광진구 아차산로 549 1008동 101호(광장동,현대파크빌)",02-455-1279,--,3,85,0,4,5,20,8,37.54390211580885,127.10098597306256,미운영,,2019-03-01,,,
서울특별시,광진구,구립 물고기어린이집,국공립,정상,5090.0,서울특별시 광진구 뚝섬로34길 25-19 1006동 102호,070-8278-4030,--,3,84,0,3,6,20,18,37.5334410708222,127.07057678793772,미운영,,2019-03-01,,,
서울특별시,광진구,구립 봄빛어린이집,국공립,정상,5086.0,"서울특별시 광진구 능동로 19 101동 103호(자양동,한강현대아파트)",02-467-4720,0504-259-8035,3,83,0,3,6,20,12,37.53328113978437,127.06670725489302,미운영,,2019-03-01,,,
서울특별시,광진구,구립 행복마루어린이집,국공립,정상,5107.0,서울특별시 광진구 뚝섬로56가길 10 (자양2동 현대3차 301-105),02-455-0516,02-455-0516,4,90,0,4,8,20,20,37.52788128219277,127.08359159082292,미운영,,2019-03-01,,,
서울특별시,광진구,구립 하늘땅별땅어린이집,국공립,정상,4995.0,서울특별시 광진구 동일로56길 15 (군자동),02-498-3062,02-464-8188,6,267,0,13,12,49,38,37.5560506,127.0729399,미운영,,2019-03-01,,,
서울특별시,광진구,구립 사랑모아어린이집,국공립,정상,5118.0,서울특별시 광진구 광나루로56길 32 구의현대아파트 202동 103호,02-457-0348,02-457-0348,3,65,0,4,7,20,17,37.53956704978216,127.09711607733156,미운영,,2019-03-01,,,
서울특별시,광진구,KB구의 어린이집,직장,정상,4977.0,서울특별시 광진구 광나루로 525 3층,02-6235-7977,02-6235-7976,4,174,1,16,14,49,28,37.545115339002464,127.08800276377303,미운영,https://www.puruni.com/kbguui,2020-02-20,,,
서울특별시,광진구,구립 우리아이어린이집,국공립,정상,5036.0,서울특별시 광진구 구의로4길 21 구의동,010-4697-9933,02-454-6169,4,182,1,11,12,42,28,37.54012728673775,127.09083838447305,미운영,,2020-03-01,,,
서울특별시,광진구,구립 아이와나무어린이집,국공립,정상,4931.0,서울특별시 광진구 천호대로123길 4-4 ,02-452-5579,--,5,222,0,8,13,49,46,37.5552386575872,127.08718850385628,미운영,www.kidtree.or.kr,2020-04-01,,,
서울특별시,광진구,구립 샘물어린이집,국공립,정상,5105.0,서울특별시 광진구 뚝섬로58길 56 101호,02-3437-7737,02-3437-7737,3,54,0,4,9,20,18,37.52978908152651,127.08526669695728,미운영,,2020-10-01,,,
서울특별시,광진구,구립 중곡하나어린이집,국공립,정상,4905.0,서울특별시 광진구 동일로76길 59 ,02-465-1004,02-465-1005,5,110,1,14,12,38,36,37.56807935572433,127.0819513397688,미운영,,2021-06-01,,,
서울특별시,광진구,구립 자양도담어린이집,국공립,정상,5054.0,서울특별시 광진구 아차산로44가길 5 (자양동 231-51),02-455-7000,02-455-7887,11,280,3,24,15,85,44,37.5361775202346,127.07994629271572,미운영,,2021-06-01,,,
서울특별시,광진구,구립 자양호반써밋어린이집,국공립,정상,5074.0,"서울특별시 광진구 능동로 69 어린이집(자양동,자양호반써밋)",02-466-7563,02-466-7563,3,89,2,11,11,33,33,37.53751475114765,127.06861188272048,미운영,,2021-10-01,,,
서울특별시,광진구,구립 광진그랜드파크어린이집,국공립,정상,5022.0,서울특별시 광진구 광나루로 458 어린이집,02-469-1956,02-497-0681,5,176,1,15,13,57,52,37.54370562061723,127.0812344033046,미운영,,2022-02-01,,,
서울특별시,광진구,구립 자양롯데캐슬어린이집,국공립,정상,5080.0,서울특별시 광진구 뚝섬로 467 ,02-6082-0467,02-6083-0467,4,252,3,8,13,50,47,37.53744095066356,127.06363904310552,미운영,,2023-09-01,,,
서울특별시,광진구,구립 새벽어린이집,국공립,정상,4947.0,서울특별시 광진구 영화사로 53 1층,02-458-5279,--,3,74,0,6,7,21,14,37.55566256555359,127.09253079393844,미운영,,2024-02-01,,,
서울특별시,동대문구,이문어린이집,국공립,정상,2406.0,서울특별시 동대문구 신이문로 9 (이문동),02-969-2052,02-969-2053,4,183,1,9,12,62,48,37.60358084,127.0630131,미운영,imun3.kidis.co.kr,1991-02-01,,,
서울특별시,동대문구,꿈마루어린이집,국공립,정상,2492.0,서울특별시 동대문구 전농로36길 29-3 꿈마루어린이집,02-2213-7974,02-2213-7974,7,540,2,11,18,122,74,37.58550218934108,127.05404161683876,미운영,cafe.naver.com/dreamsky1,1984-02-25,,,
서울특별시,동대문구,메꽃어린이집,국공립,정상,2637.0,서울특별시 동대문구 답십리로 320-1 ,02-2212-6096,070-7580-6096,6,404,1,16,12,94,57,37.57167207,127.0761235,미운영,,1983-06-27,,,
서울특별시,동대문구,한신어린이집,민간,정상,2463.0,서울특별시 동대문구 제기로 131 청량한신2차아파트 단지동 (청량리동),02-957-0656,02-957-0657,6,298,2,8,11,88,34,37.58799269,127.0492407,운영,hansinkids.com,1999-01-12,,,
서울특별시,동대문구,다솔어린이집,민간,정상,2428.0,서울특별시 동대문구 휘경로 45 (휘경동),02-965-0471,02-967-3833,5,297,1,8,11,74,40,37.59470651,127.064943,운영,,1995-05-20,,,
서울특별시,동대문구,단비어린이집,국공립,정상,2594.0,서울특별시 동대문구 답십리로26길 12 (전농동),02-2212-2207,02-2212-2208,4,191,1,16,12,64,49,37.5751723737,127.0475815691,미운영,cafe.daum.net/danbihome,2002-09-01,,,
서울특별시,동대문구,한일어린이집,민간,정상,2426.0,서울특별시 동대문구 외대역동로 118 (이문동),02-969-2558,02-961-8537,8,447,1,12,12,170,43,37.59888105,127.0666539,운영,,2001-12-03,,,
서울특별시,동대문구,도담어린이집,국공립,정상,2507.0,서울특별시 동대문구 사가정로17길 21 구립 도담 어린이집,02-2244-8703,02-2241-9325,6,829,1,19,20,99,76,37.5787544,127.0605018,미운영,,1983-07-13,,,
서울특별시,동대문구,휘경어린이집,국공립,정상,2496.0,서울특별시 동대문구 망우로 46 ,02-2243-2831,02-2245-6962,5,221,1,12,14,75,55,37.5913124,127.0613223,미운영,,1987-02-01,,,
서울특별시,동대문구,조앤아이어린이집,가정,정상,2524.0,"서울특별시 동대문구 장안벚꽃로 167 215동 102호(장안동, 장안아파트2단지)",02-2246-2789,02-2246-2789,3,60,0,4,7,20,13,37.57389111,127.0752889,미운영,,2005-03-11,,,
서울특별시,동대문구,유마어린이집,국공립,정상,2464.0,서울특별시 동대문구 제기로31길 10-3 (청량사내) (청량리동),02-965-4121,02-959-4131,4,129,0,13,9,48,28,37.58810833,127.0472679,미운영,,2000-12-09,,,
서울특별시,동대문구,동화어린이집,민간,정상,2497.0,서울특별시 동대문구 망우로12가길 20 (휘경동),02-2244-9118,02-2247-2386,7,212,2,11,23,80,69,37.58868271,127.0602457,운영,http//cafe.naver.com/dh9118,1996-12-16,,,
서울특별시,동대문구,신현대어린이집,국공립,정상,2461.0,서울특별시 동대문구 이문로1길 21 신현대아파트 관리소동 1층 (회기동),02-959-7989,02-959-7989,3,58,0,4,6,20,11,37.58955783,127.052047,미운영,,2002-12-17,,,
서울특별시,동대문구,글샘어린이집,민간,정상,2564.0,서울특별시 동대문구 천호대로35길 39 (용두동),02-969-0073,02-969-0071,8,156,2,10,10,59,29,37.57506995,127.0416592,운영,,2005-01-29,,,
서울특별시,동대문구,용두희망어린이집,국공립,정상,2578.0,서울특별시 동대문구 무학로49길 75 (용두동),02-923-0836,02-923-0837,5,230,1,11,13,79,58,37.57969079,127.0267201,미운영,ydh0836@naver.com,2004-03-01,,,
서울특별시,동대문구,햇살어린이집,국공립,정상,2590.0,서울특별시 동대문구 청계천로 547 (용두동 696-9),02-962-5519,02-960-5519,6,280,1,12,13,99,63,37.57282049705496,127.03697997812796,미운영,,1982-09-01,,,
서울특별시,동대문구,배봉어린이집,국공립,정상,2516.0,서울특별시 동대문구 사가정로25길 51 (장안동),02-2217-2070,02-2217-2060,5,513,1,8,14,99,72,37.58114475,127.0706184,미운영,http://cafe.daum.net/baebongedu,1994-03-04,,,
서울특별시,동대문구,천응방과후어린이집,민간,정상,2487.0,서울특별시 동대문구 제기로 128-6 ,02-965-2423,02-6402-7449,4,106,0,7,6,40,25,37.58639757,127.0469715,미운영,,2002-07-02,,,
서울특별시,동대문구,사랑어린이집,민간,정상,2467.0,서울특별시 동대문구 고산자로 534 제기한신아파트 단지동 (제기동),02-964-1442,02-964-1443,7,367,3,8,10,81,37,37.58872123,127.0390668,미운영,,2000-10-05,,,
서울특별시,동대문구,전농방과후어린이집,민간,정상,2548.0,서울특별시 동대문구 서울시립대로12길 99 (전농동)355-1,02-2215-8514,02-2215-8518,3,206,0,5,8,40,22,37.57455721,127.0468836,미운영,,2000-06-19,,,
서울특별시,동대문구,열린방과후어린이집,국공립,정상,2508.0,서울특별시 동대문구 전농로16길 59 열린방과후교실,02-2248-0421,02-2248-0421,2,52,0,2,3,20,20,37.5782405,127.0605762,미운영,http://cafe.daum.net/y005,2001-08-08,,,
서울특별시,동대문구,어린왕자어린이집,민간,정상,2412.0,서울특별시 동대문구 신이문로6길 10 (이문동),02-959-5977,--,7,266,2,15,22,99,83,37.60245440759991,127.06300472365935,운영,,1999-09-28,,,
서울특별시,동대문구,다솔창의어린이집,민간,정상,2428.0,서울특별시 동대문구 휘경로 45 ,02-960-4281,02-967-3833,3,117,1,4,6,23,7,37.59335698,127.0648568,미운영,,1997-09-24,,,
서울특별시,동대문구,영신어린이집,법인·단체등,정상,2558.0,서울특별시 동대문구 답십리로 51 (전농동),02-2213-0304,02-2213-0602,5,217,0,8,14,49,28,37.57658691,127.0470649,운영,보육포털,1997-06-10,,,
서울특별시,동대문구,늘푸른어린이집,민간,정상,2593.0,서울특별시 동대문구 서울시립대로 14 청계한신휴플러스아파트 관리동 (답십리동),02-2212-8439,02-2248-2689,5,177,1,8,10,67,34,37.57246644600364,127.04591355681065,미운영,,1996-12-13,,,
서울특별시,동대문구,성은어린이집,민간,정상,2423.0,서울특별시 동대문구 한천로 434 (이문동),02-967-7178,02-966-7179,6,255,1,11,9,49,30,37.5991872,127.0678822,운영,http://enterkids.com/sungeun,1999-08-07,,,
서울특별시,동대문구,늘사랑어린이집,국공립,정상,2488.0,서울특별시 동대문구 제기로38길 50 동성빌딩  2층,02-965-6096,02--,2,54,0,5,7,20,12,37.58419445,127.049084,미운영,,1992-06-15,,,
서울특별시,동대문구,벽산이엘어린이집,민간,정상,2477.0,서울특별시 동대문구 약령시로 25 안암골벽산아파트 단지내 (제기동),02-929-1697,02-929-1698,6,443,2,14,5,39,9,37.58357773,127.0314135,미운영,,2003-12-02,,,
서울특별시,동대문구,새싹어린이집,국공립,정상,2512.0,"서울특별시 동대문구 한천로 248 101동 102호(휘경동, 주공아파트)",02-2248-2467,--,3,53,0,4,8,20,20,37.583237,127.0719,미운영,,2015-09-01,,,
서울특별시,동대문구,예일어린이집,국공립,정상,2407.0,"서울특별시 동대문구 한천로63길 10 106동 104호(이문동, 이문e편한세상아파트)",02-965-3007,02-966-3651,3,67,0,4,6,20,14,37.60448057,127.0650075,미운영,http://cafe.naver.com/1004yeilchildren,2016-03-01,,,
서울특별시,동대문구,중앙삐아제어린이집,민간,정상,2409.0,서울특별시 동대문구 한천로63길 5-8 ,02-966-9614,02-963-9712,5,276,2,8,15,60,39,37.60401065,127.0667677,운영,,1996-09-05,,,
서울특별시,동대문구,키즈브라운어린이집,가정,정상,2575.0,"서울특별시 동대문구 왕산로23길 89 103동 105호(제기동, 이수브라운 스톤아파트)",02-928-2008,--,3,63,0,4,7,20,10,37.58232117,127.0342104,미운영,,2005-05-01,,,
서울특별시,동대문구,효림어린이집,가정,정상,2512.0,"서울특별시 동대문구 한천로 248 111동 105호(휘경동, 주공아파트)",02-6238-0460,02-6238-0460,4,54,0,4,6,20,8,37.583237,127.0719,미운영,,2002-01-28,,,
서울특별시,동대문구,애일선교어린이집,민간,정상,2584.0,서울특별시 동대문구 왕산로16길 28 (용두동),02-921-3825,02-928-5489,5,271,0,5,5,39,10,37.57660266,127.0309582,운영,,1996-03-19,,,
서울특별시,동대문구,아이꿈어린이집,가정,정상,2609.0,"서울특별시 동대문구 답십리로 210-30 2동 114호(답십리동, 한신아파트)",02-6495-0058,02-6493-0058,3,54,0,4,6,20,14,37.57086836,127.0625253,미운영,,2004-12-22,,,
서울특별시,동대문구,빛초롱어린이집,민간,정상,2532.0,서울특별시 동대문구 사가정로 168 SK아파트 제2관리소 단지동 (전농동),02-2244-5550,02-2244-5550,4,135,0,5,2,30,9,37.57651405,127.0604564,미운영,,2001-03-15,,,
서울특별시,동대문구,보림어린이집,국공립,정상,2426.0,서울특별시 동대문구 외대역동로 114-1 ,02-957-3805,02-957-0455,4,110,0,11,14,41,41,37.59768416,127.0654764,미운영,http://cafe.daum.net/borimchildren,2005-01-03,,,
서울특별시,동대문구,푸른하늘어린이집,국공립,정상,2625.0,서울특별시 동대문구 답십리로66길 75-4 (장안동 393-2),02-2212-1036,02-2215-5661,7,520,1,13,22,157,110,37.56892726,127.0669282,미운영,,1981-02-24,,,
서울특별시,동대문구,회기어린이집,국공립,정상,2452.0,서울특별시 동대문구 회기로 165 (회기동 58-1),02-969-6691,02-959-3801,4,154,2,13,11,54,29,37.59067132,127.0544934,미운영,cafe.daum.net/heogi,1991-12-27,,,
서울특별시,동대문구,우성그린어린이집,가정,정상,2535.0,"서울특별시 동대문구 답십리로59길 33 102동 101호(답십리동, 우성그린아파트)",02-6213-0623,02-6213-0124,3,54,0,4,8,20,14,37.57479158,127.0659471,미운영,,2005-01-14,,,
서울특별시,동대문구,예나어린이집,국공립,정상,2479.0,서울특별시 동대문구 경동시장로23길 14 (제기동),02-967-2229,02-965-7218,7,478,1,16,16,99,56,37.58572845,127.0394563,미운영,cafe.naver.com/yena2229,2001-10-01,,,
서울특별시,동대문구,동대문어린이집,국공립,정상,2601.0,서울특별시 동대문구 사가정로2길 13 (답십리동),02-2213-7994,02-2245-5027,6,395,1,16,17,88,65,37.5711920739042,127.0511832346515,미운영,cafe.daum.net/lovedongdemoon,1981-03-02,,,
서울특별시,동대문구,동대문구청직장어린이집,직장,정상,2565.0,서울특별시 동대문구 고산자로28길 13 (용두동),02-6929-2601,02-965-8596,6,170,0,11,13,49,37,37.57439451111949,127.03989678486758,미운영,https://iseoul.seoul.go.kr/homepage/main.do?stCode=11230000117,2001-03-01,,,
서울특별시,동대문구,중앙어린이집,가정,정상,2532.0,"서울특별시 동대문구 사가정로 148 111동 101호(전농동, SK아파트)",02-2247-5043,--,3,54,0,4,6,20,14,37.57651405,127.0604564,미운영,http://cafe.naver.com/wjsshdwnddkd,2004-10-04,,,
서울특별시,동대문구,칼비테영재어린이집,국공립,정상,2524.0,"서울특별시 동대문구 장안벚꽃로 167 214동 102호(장안동, 장안아파트2단지)",02-2215-0010,02-2215-0010,3,54,5,4,8,20,19,37.57389111,127.0752889,미운영,kbt6843@hanmail.net,2015-12-01,,,
서울특별시,동대문구,두산오르다어린이집,민간,정상,2607.0,서울특별시 동대문구 답십리로56길 8 (답십리동),02-2243-0532,070-4324-0532,3,148,0,4,9,35,28,37.57241247,127.0592061,운영,다음 까페 지혜로운 두산오르다 어린이,2006-01-26,,,
서울특별시,동대문구,별밭어린이집,국공립,정상,2624.0,서울특별시 동대문구 답십리로66길 3 (장안동),02-2215-0248,02-2212-0456,5,742,1,8,12,99,73,37.57233065,127.0685453,미운영,,1993-11-27,,,
서울특별시,동대문구,빛나어린이집,민간,정상,2546.0,서울특별시 동대문구 전농로23길 47 (전농동),02-2212-0406,02-2212-0414,6,346,0,9,11,49,31,37.5791048,127.0538336,운영,,1996-09-25,,,
서울특별시,동대문구,그린어린이집,법인·단체등,정상,2500.0,서울특별시 동대문구 망우로 82 ,02-2213-7273,02-2213-7276,7,385,1,16,12,70,38,37.58929979,127.0645396,미운영,키즈노트,1998-03-17,,,
서울특별시,동대문구,태양하나어린이집,국공립,정상,2592.0,서울특별시 동대문구 황물로 32 ,02-2245-9544,02-2245-9544,7,570,1,25,13,125,94,37.57399227,127.045324,미운영,,2021-03-01,,,
서울특별시,동대문구,초롱하나어린이집,국공립,정상,2592.0,서울특별시 동대문구 황물로 34 ,02-2212-6314,02-2242-4867,5,167,1,21,15,57,57,37.57399227,127.045324,미운영,http://cafe.daum.net/e-chorong,2002-03-01,,,
서울특별시,동대문구,해오름어린이집,국공립,정상,2476.0,서울특별시 동대문구 약령시로5길 22 (제기동),02-929-0081,02-929-0082,8,366,1,11,14,138,57,37.58396475,127.0342209,미운영,,2000-09-01,,,
서울특별시,동대문구,한아름어린이집,국공립,정상,2524.0,서울특별시 동대문구 장안벚꽃로 167 삼성래미안2차아파트단지내 (장안동),02-2245-0105,02-2245-0106,6,228,1,8,15,86,82,37.57389111,127.0752889,미운영,,2005-05-02,,,
서울특별시,동대문구,앙팡어린이집,국공립,정상,2484.0,서울특별시 동대문구 홍릉로10길 18 (청량리동),02-969-5141,02-969-5142,4,106,0,10,9,30,22,37.58513457,127.044662,미운영,cafe.daum.net/babyhouse2002,2011-09-01,,,
서울특별시,동대문구,삼성영재어린이집,국공립,정상,2505.0,서울특별시 동대문구 전농로 192 삼성아파트 단지내 (전농동),02-2212-1212,02-2246-7946,5,161,0,6,10,45,22,37.5818945,127.0555305,미운영,,2011-09-01,,,
서울특별시,동대문구,이솝어린이집,국공립,정상,2467.0,"서울특별시 동대문구 고산자로 534 107동 101호(제기동, 한신아파트)",02-959-3434,02-966-5306,4,67,0,5,8,20,20,37.58872123,127.0390668,미운영,,2016-03-01,,,
서울특별시,동대문구,한빛어린이집,국공립,정상,2449.0,서울특별시 동대문구 천장산로7길 16 (이문동),02-2135-5861,02-2135-5863,2,54,0,6,5,20,10,37.598485672505454,127.05699152673697,미운영,,2020-03-01,,,
서울특별시,동대문구,아이세상어린이집,가정,정상,2638.0,"서울특별시 동대문구 장안벚꽃로 107 115동 104호(장안동, 현대홈타운아파트)",02-2249-5624,02-6212-5624,3,70,0,4,1,20,0,37.56966129,127.0746722,미운영,http://cafe.daum.net/22495624,2003-11-13,,,
서울특별시,동대문구,아뜰어린이집,민간,정상,2581.0,서울특별시 동대문구 안암로 6 대광고등학교내 (신설동),02-924-0235,02-929-0236,5,170,0,8,13,49,44,37.57788303,127.0247205,운영,www.addlepg.com,2006-03-02,,,
서울특별시,동대문구,장안어린이집,국공립,정상,2643.0,서울특별시 동대문구 천호대로89길 58 (장안동),02-2212-5178,02-2214-9311,9,531,1,16,27,164,133,37.56404124,127.0694828,미운영,http://cafe.daum.net/jangankidhouse ,1981-11-02,,,
서울특별시,동대문구,조은어린이집,민간,정상,2613.0,서울특별시 동대문구 답십리로56길 21-1 두산아파트단지내 조은어린이집,02-2244-4220,02-2248-9303,6,817,2,11,18,120,115,37.56982902,127.0600898,운영,,2001-03-12,,,
서울특별시,동대문구,예든어린이집,가정,정상,2639.0,"서울특별시 동대문구 장한로26다길 84 201동 105호(장안동, 현대홈타운아파트)",02-6414-8600,--,4,65,0,4,5,20,6,37.5688279846394,127.07171946081937,미운영,,2006-03-31,,,
서울특별시,동대문구,해맑은어린이집,국공립,정상,2514.0,서울특별시 동대문구 한천로46길 70-9 (장안동),02-2243-0088,02-2243-0116,7,306,1,16,14,91,73,37.58108023180034,127.07233689703648,미운영,,2015-08-01,,,
서울특별시,동대문구,우아세어린이집,국공립,정상,2606.0,서울특별시 동대문구 답십리로48길 38 답십리2동,02-2216-3355,02-2216-3255,5,157,0,19,13,49,39,37.57114382472408,127.05770314008834,미운영,,2012-01-01,,,
서울특별시,동대문구,혜빛어린이집,민간,정상,2547.0,서울특별시 동대문구 사가정로9길 18-1 (전농동),02-2248-9787,02-2135-9787,4,115,0,7,5,35,8,37.57750603,127.0559313,미운영,,2001-04-30,,,
서울특별시,동대문구,푸른나무어린이집,민간,정상,2641.0,서울특별시 동대문구 장한로14길 81 삼성래미안1차아파트 관리동 1층,02-2215-3373,02-2215-3374,3,126,0,6,7,39,20,37.5659457,127.0727599,미운영,,2004-03-19,,,
서울특별시,동대문구,사군자어린이집,민간,정상,2635.0,서울특별시 동대문구 장한로5길 45 (장안동),02-2246-5801,02-2245-5872,3,90,1,7,5,34,13,37.5650925,127.0638644,미운영,,2001-07-27,,,
서울특별시,동대문구,대림늘푸른어린이집,국공립,정상,2610.0,서울특별시 동대문구 답십리로60길 40 (답십리동),02-2217-7900,--,4,160,1,8,10,60,48,37.57112454,127.0643787,미운영,,2013-01-01,,,
서울특별시,동대문구,장안현대어린이집,민간,정상,2638.0,서울특별시 동대문구 장안벚꽃로 107 현대홈타운아파트 단지동 (장안동),02-2214-7051,02-2214-7061,6,305,3,8,15,84,77,37.56966129,127.0746722,미운영,,2004-12-10,,,
서울특별시,동대문구,꿀벌어린이집,가정,정상,2524.0,"서울특별시 동대문구 장안벚꽃로 167 224동 102호(장안동, 장안아파트2단지)",02-2249-3739,02-2249-3739,4,72,0,4,8,20,17,37.57389111,127.0752889,미운영,,2005-03-11,,,
서울특별시,동대문구,송림어린이집,가정,정상,2524.0,"서울특별시 동대문구 장안벚꽃로 167 209동 103호(장안동, 장안아파트2단지)",02-2212-8480,02-2212-8480,3,55,0,4,6,20,9,37.57389111,127.0752889,미운영,,2002-02-02,,,
서울특별시,동대문구,보령어린이집,가정,정상,2407.0,"서울특별시 동대문구 이문로54길 36 101동 103호(이문동, 이문e편한세상아파트)",02-966-3066,--,3,54,1,4,5,20,10,37.60448057,127.0650075,미운영,,2003-07-05,,,
서울특별시,동대문구,사랑샘어린이집,가정,정상,2442.0,"서울특별시 동대문구 이문로12길 3-10 107동 101호(이문동, 삼성래미안아파트2차)",02-964-9951,02-964-9951,4,86,0,4,8,20,19,37.59351274,127.0603039,미운영,,2004-05-18,,,
서울특별시,동대문구,즐거운어린이집,가정,정상,2532.0,"서울특별시 동대문구 사가정로 148 112동 103호(전농동, SK아파트)",02-2248-9802,02-2246-9802,3,59,0,4,6,18,11,37.57651405,127.0604564,미운영,,2002-12-17,,,
서울특별시,동대문구,햇님어린이집,가정,정상,2532.0,"서울특별시 동대문구 사가정로 148 105동 101호(전농동, SK아파트)",02-2213-4322,02-2248-1961,4,52,0,4,7,20,20,37.57606866604141,127.0598908698592,미운영,,1992-11-07,,,
서울특별시,동대문구,미주키즈어린이집,가정,정상,2485.0,"서울특별시 동대문구  홍릉로10길 48 104동 102호(청량리동, 홍릉동부아파트)",02-959-5941,02-959-5941,3,78,0,12,4,20,1,37.5840197,127.0467448,운영,,2005-07-15,,,
서울특별시,동대문구,꿈쟁이어린이집,가정,정상,2423.0,"서울특별시 동대문구 한천로58길 47 102동 102호(이문동, 쌍용아파트)",02-964-8213,02-964-8213,3,75,0,4,6,20,15,37.59999669,127.0684984,미운영,club.cyworld.com/jmn8213,2001-02-03,,,
서울특별시,동대문구,규현어린이집,가정,정상,2423.0,"서울특별시 동대문구 한천로58길 47 103동 102호(이문동, 쌍용아파트)",02-6221-4386,070-8299-4386,4,75,2,4,5,20,5,37.59999669,127.0684984,미운영,,2005-03-11,,,
서울특별시,동대문구,꼬꼬마어린이집,가정,정상,2624.0,서울특별시 동대문구 답십리로68길 52-4 ,02-2213-2020,02-2213-2020,3,54,0,4,4,19,11,37.57036913,127.0684373,미운영,http://club.cyworld.com/RRAlove3,2004-12-30,,,
서울특별시,동대문구,브레인에듀어린이집,가정,정상,2638.0,"서울특별시 동대문구 장안벚꽃로 107 116동 103호(장안동, 현대홈타운아파트)",02-2241-7879,--,4,74,0,4,8,20,17,37.56966129,127.0746722,미운영,,2004-03-02,,,
서울특별시,동대문구,길터어린이집,가정,정상,2519.0,서울특별시 동대문구 장한로36길 15 신부 3차 아파트 102호 길터어린이집 (장안동),02-2245-5123,02-2245-5123,2,90,0,4,3,13,0,37.57766942623981,127.07314481954111,미운영,cafe.daum.net/0222455123,2004-06-10,,,
서울특별시,동대문구,천사나라어린이집,가정,정상,2463.0,"서울특별시 동대문구 제기로 131 106동 103호(청량리동, 청량한2차신아파트)",02-967-0172,02-486-3441,4,54,1,5,6,20,16,37.58799269,127.0492407,미운영,https://angelnara.kidsnote.ac,2005-05-07,,,
서울특별시,동대문구,동화마을어린이집,가정,정상,2496.0,서울특별시 동대문구 망우로14길 18 2층 동화마을 어린이집,02-2245-5141,02-2212-2162,3,56,0,3,6,12,7,37.58902959,127.0602425,미운영,,1995-07-08,,,
서울특별시,동대문구,꿈동산어린이집,가정,정상,2532.0,"서울특별시 동대문구 사가정로 148 103동 103호(전농동, SK아파트)",02-2243-3016,02-2243-3916,4,83,0,5,7,20,11,37.57651405,127.0604564,미운영,전농동꿈동산어린이집,2000-05-04,,,
서울특별시,동대문구,햇빛어린이집,국공립,정상,2533.0,"서울특별시 동대문구 사가정로 190 16동 108호(전농동, 우성아파트)",02-2242-0089,--,3,43,0,3,6,16,11,37.57727289,127.065358,미운영,,2017-09-01,,,
서울특별시,동대문구,청량리어린이집,국공립,정상,2480.0,서울특별시 동대문구 홍릉로17길 38 (제기동),02-6080-6404,02-6083-6404,3,45,0,4,4,15,7,37.586190422838,127.04091200526692,미운영,,1992-09-02,,,
서울특별시,동대문구,신나는어린이집,국공립,정상,2427.0,"서울특별시 동대문구 외대역동로 101 102동 102호(이문동, 중앙하이츠아파트)",02-969-5906,070-4410-5277,4,62,0,4,8,20,19,37.59644915,127.0646052,미운영,,2017-09-01,,,
서울특별시,동대문구,사랑해어린이집,가정,정상,2422.0,"서울특별시 동대문구 한천로58길 139 103동 102호(이문동, 대우아파트)",02-967-5580,02-6214-1010,3,58,0,4,5,20,9,37.60253512,127.0697816,미운영,,2006-06-05,,,
서울특별시,동대문구,사임당어린이집,가정,정상,2512.0,"서울특별시 동대문구 한천로 248 102동 105호(휘경동, 주공아파트)",02-6403-4345,02-6403-4345,3,62,0,4,5,19,9,37.583237,127.0719,미운영,,2006-08-04,,,
서울특별시,동대문구,경희의료원 어린이집,직장,정상,2454.0,서울특별시 동대문구 경희대로1나길 56-1 ,02-958-9850,02-958-9851,3,96,0,5,8,36,9,37.59343863,127.0501452,미운영,,1996-05-01,,,
서울특별시,동대문구,동아어린이집,민간,정상,2612.0,서울특별시 동대문구 한천로11길 10-1 동아아파트 단지내 유치원동 (답십리동),02-2242-8337,02-2242-8335,7,331,1,8,14,82,40,37.56927633,127.061745,운영,,2006-11-17,,,
서울특별시,동대문구,포르테몬테소리어린이집,민간,정상,2642.0,서울특별시 동대문구 장한로12길 76-1 ,02-2247-1263,02-2213-5583,6,214,1,7,15,80,75,37.56423259,127.0714692,운영,,2006-12-21,,,
서울특별시,동대문구,대림 어린이집,국공립,정상,2407.0,"서울특별시 동대문구 한천로63길 10 115동 103호 (이문동, 이편한세상아파트)",02-6212-5414,02-6212-5414,3,52,0,4,7,19,14,37.60336100688493,127.06593176195103,미운영,http://cafe.naver.com/daelim115103,2017-03-01,,,
서울특별시,동대문구,동아개구쟁이어린이집,가정,정상,2612.0,"서울특별시 동대문구 한천로11길 10-1 104동 103호(답십리동, 동아아파트)",02-2217-1233,02-2217-1233,3,63,0,4,7,20,19,37.56927633,127.061745,미운영,,2007-03-21,,,
서울특별시,동대문구,삼육서울병원직장어린이집,직장,정상,2500.0,서울특별시 동대문구 망우로 82 ,02-2210-3238,02-2210-3332,3,250,2,8,8,33,5,37.58929979,127.0645396,미운영,,1995-05-11,,,
서울특별시,동대문구,언덕위에 하얀 어린이집,국공립,정상,2474.0,서울특별시 동대문구 약령시로3길 38 (제기동),02-925-3150,02-929-3150,3,86,0,8,11,20,14,37.58404256,127.0322793,미운영,whitechildcarecenter.kidsnote.ac ,2016-03-01,,,
서울특별시,동대문구,동그라미어린이집,가정,정상,2632.0,"서울특별시 동대문구 천호대로77길 63 101동 104호(장안동, 대명이룸아파트)",02-2248-0103,02-2248-0103,3,59,0,4,7,20,20,37.56480972,127.0622934,미운영,,2007-09-12,,,
서울특별시,동대문구,사과나무어린이집,가정,정상,2524.0,"서울특별시 동대문구 장안벚꽃로 167 205동 102호(장안동, 장안아파트2단지)",02-446-3791,02-446-3791,3,76,0,4,8,20,16,37.57389111,127.0752889,미운영,,2007-10-01,,,
서울특별시,동대문구,현대참사랑어린이집,가정,정상,2521.0,"서울특별시 동대문구 장안벚꽃로1길 7 1008동 102호(장안동, 장안힐스테이트아파트)",02-2249-6655,02-2249-6655,3,54,0,4,8,20,12,37.576376569201024,127.07454776862284,미운영,,2007-10-01,,,
서울특별시,동대문구,예지어린이집,민간,정상,2521.0,서울특별시 동대문구 장안벚꽃로1길 7 힐스테이트 단지내 (장안동),02-3394-6679,02-3394-6679,3,93,0,4,9,33,19,37.576376569201024,127.07454776862284,미운영,,2008-02-28,,,
서울특별시,동대문구,꼬마별어린이집,가정,정상,2644.0,"서울특별시 동대문구 천호대로89길 33 202동 102호(장안동, 형인허브빌아파트)",02-2245-3600,02-2245-3600,4,64,0,4,7,19,14,37.56336247,127.0677334,미운영,,2008-04-01,,,
서울특별시,동대문구,해리어린이집,가정,정상,2623.0,"서울특별시 동대문구 답십리로66길 20 101동 101호(장안동, 금강아미움 아파트)",02-2246-2270,02-2246-2270,3,69,1,4,7,20,13,37.57172688,127.0678521,미운영,http://cafe.naver.com/harryharrylover,2008-05-01,,,
서울특별시,동대문구,우리누리어린이집,직장,정상,2489.0,서울특별시 동대문구 약령시로 159 (청량리동),02-963-5885,02-963-5887,3,156,0,8,9,39,24,37.5832263,127.0478011,미운영,,2008-05-28,,,
서울특별시,동대문구,지니맘어린이집,가정,정상,2616.0,서울특별시 동대문구 한천로11다길 86 (답십리동),070-8111-0030,--,4,98,0,9,8,20,20,37.5683665016,127.0590142491,미운영,ka070204,2008-06-23,,,
서울특별시,동대문구,파랑새어린이집,국공립,정상,2638.0,"서울특별시 동대문구 장안벚꽃로 107 108동 102호(장안동, 현대홈타운아파트)",02-2243-3935,02-2243-3935,3,54,0,4,8,20,18,37.56966129,127.0746722,미운영,,2018-03-01,,,
서울특별시,동대문구,딸기어린이집,가정,정상,2524.0,"서울특별시 동대문구 장안벚꽃로 167 210동 103호 (장안동, 래미안장안2차아파트)",02-3394-6660,02-3394-6660,3,57,0,4,4,19,5,37.57389111,127.0752889,미운영,,2009-02-24,,,
