name,address,lat,long,school_distance,baby_school_distance,elderly_center_distance,fire_station_distance,rescue_station_distance,traffic_volume,hydrogen_car_count,population_density,predictions
㈜한진김포공항주유소,서울특별시 강서구 하늘길 259(발산1동 423-2),37.5509423302466,126.814720192147,0.2502303091043762,0.6482679773228093,0.5281557569874064,91.94998342021296,88.64939201595813,26957,265,30927,4.53741890902692
현대오일뱅크(주)직영양재현대주유소,서울특별시 서초구 마방로 6 (양재동),37.4735504238038,127.039695160631,0.3226089225905399,0.0278573038244974,0.5517734236988651,99.9989725148966,97.6504662463936,231970,236,42683,4.56683462993592
지에스칼텍스(주)건지주유소,서울특별시 양천구 안양천로 1171(목동),37.545315926725,126.882152598122,0.2672376213889166,0.0220988691628943,0.5144731445423526,91.97115967881356,88.95540409174282,81224,265,41628,4.56683462993592
대치에너지주식회사,서울특별시 강남구 남부순환로 3179,37.4994578330042,127.078164147586,0.271656527741228,0.5348966704084841,0.5629980689398185,97.45136282036732,95.286921435564,38760,241,28358,4.566950341380368
복지공릉충전소,서울특별시 노원구 화랑로 826 (공릉동),37.6389357678347,127.109652172998,0.4958291265756944,0.557219209972301,2.3611531104765837,82.49651604129981,80.6265272115737,51450,84,42538,4.56716499036586
퍼스트주유소 (셀프),서울특별시 송파구 삼학사로 22(석촌동),37.499307755111,127.097184353139,0.2167694478696508,0.0988377999259587,0.5134280671049454,97.66875366655138,95.58859655570508,114268,241,29912,4.568111179890002
현대오일뱅크㈜직영 양천현대셀프주유소,서울특별시 양천구 안양천로 1179(목동),37.5460090919396,126.881369691227,0.3558555187730494,0.1017181514770011,0.499147372615608,91.89918433734644,88.87989868416098,81224,265,41628,4.5685722363155445
행촌제2주유소,서울특별시 서대문구 성산로 490(대신동),37.5610155646644,126.941569342334,0.1054152127749081,0.3932096173355019,0.4274003822232867,90.01656216858356,87.26246821785736,85942,108,26143,4.56917430947805
㈜비자인터내셔날학여울주유소,서울특별시 강남구 남부순환로 3170(대치동),37.4984484660486,127.077571649146,0.1647644482208609,0.4868441408002293,0.5170531929754686,97.55690095598683,95.3890659961632,163503,241,28358,4.56917430947805
한국석유공업㈜ 한석주유소,서울특별시 용산구 이촌로 164,37.5215921464571,126.965360511446,0.3488739019544478,0.2681299826189816,0.4706696759652656,94.3900267388367,91.73697174925056,103647,93,22886,4.569353033137143
삼우주유소,서울특별시 성동구 천호대로 392(용답동 229-5),37.5614150648805,127.062310521717,0.3394374638457718,0.3767697858738578,0.4504623590910373,90.46394146036717,88.27489639926914,47232,65,38677,4.569353033137143
마포시엠주유소,서울특별시 마포구 월드컵북로 62 (성산동),37.5597772413684,126.917179478209,0.3511726077578988,0.1314783648217101,0.5669910697639601,90.2061574410666,87.34188265268648,42092,186,19079,4.569442300859578
지에스칼텍스(주) 서부주유소,서울특별시 은평구 응암로210 (응암동),37.590582961927,126.9176973333,0.4012867297242479,0.136956273531183,0.4499091137852361,86.78768350518602,83.92389794087649,39064,134,24313,4.569442300859578
한일가스산업(주),서울특별시 구로구 경인로 537 한일가스충전소,37.5019226496636,126.877866434506,0.3040566691989962,0.3413831041605961,0.4160281738801161,96.8019272018676,93.77855060589911,57000,200,30093,4.569515407136714
대성산업(주)대성주유소,서울특별시 은평구 통일로642 (녹번동),37.6040033229848,126.935207500802,0.2152113774279904,0.143239360502003,0.4157953405633245,85.25499410298795,82.47382236901521,79640,134,36884,4.569650156287131
송파제일주유소 (셀프),서울특별시 송파구 삼학사로 50(석촌동),37.501693668377,127.097232908506,0.3505119504305658,0.2302361598029964,0.4050260091804919,97.40667570401575,95.32879992933808,114268,241,29912,4.56974169785795
오승프라임산업(주),서울특별시 구로구 신정로 59 궁동 LPG충전소,37.5070638663697,126.829240476765,0.3705922349865083,0.3803608947241152,0.8305918006555456,96.62544787149768,93.40530652428411,51994,126,50587,4.569875348827165
주식회사 대양씨앤씨 경복궁주유소,서울특별시 종로구 율곡로 6(중학동),37.5754538625026,126.979775832051,0.3209185384835704,0.1467707460929842,0.6550390532362731,88.43527801627256,85.86132514309529,55147,79,11818,4.570531711186652
에스제이에너지산업(주)개포주유소,서울특별시 강남구 양재대로 339(개포동),37.4723695996899,127.051706222102,0.3999406457741403,0.208994182884586,0.4805757391256572,100.21433269509625,97.91645228503506,231970,269,23639,4.57053286714138
대신석유(주) 서원주유소,서울특별시 서초구 반포대로 142 (서초동),37.492730944688,127.007571181715,0.3968172360970469,0.197408019985026,0.5144506142973484,97.70036444917098,95.2227842161491,87685,236,32379,4.570885516675488
신반포주유소,서울특별시 서초구 사평대로 94 (반포동),37.4983886833497,126.994998605875,0.4046485686620268,0.217071608705236,0.4206427420872846,97.026163785921,94.49626151200876,23053,236,292,4.570909219440173
서초충전소,서울특별시 서초구 남부순환로 2224,37.4731793896239,126.995429646985,0.4234160491290248,0.4553563481363259,0.4853140454535968,99.82360291414786,97.28737013747102,91217,236,17321,4.571195761882149
복지강남충전소,서울특별시 강남구 밤고개로 200,37.4764893247355,127.105339916765,0.3403588435899385,0.1816533043793702,0.6001089198644943,100.27345834649554,98.20942496903643,70937,269,43382,4.571248304970281
방죽주유소,서울특별시 강남구 밤고개로 215(자곡동),37.4749982222533,127.106869450908,0.1361764321472028,0.0779829200633671,0.4382892835195363,100.4553764193479,98.39667771858896,70937,269,43382,4.571487791936745
석촌주유소 (셀프),서울특별시 송파구 백제고분로 289 (석촌동),37.5028882169283,127.09854306751,0.4846487262480647,0.2529590186900684,0.4524854706186305,97.29012851751922,95.21913649017274,114268,241,29912,4.571892428548662
에쓰-오일(주)개나리주유소,서울특별시 강남구 언주로 423(역삼동),37.5008017584379,127.043077427217,0.4898191189108474,0.2481418685072732,0.5432195991369074,97.0065712808152,94.68790647723664,20957,269,35556,4.571892428548662
서남주유소,서울특별시 중구 통일로 30 (봉래동1가),37.5583842097102,126.972171955834,0.4920575321108754,0.2235380622204854,0.4326769889710727,90.3151712112293,87.70092864883934,48610,58,12338,4.571892428548662
삼선주유소,서울특별시 성북구 창경궁로 324,37.58798513267,127.005541114305,0.3982067748968722,0.182671975678089,0.4293154079221158,87.13236209546707,84.68690374317445,46010,73,16889,4.572646227088267
중곡현대주유소(현대오일뱅크㈜직영주유소),서울특별시 광진구 동일로 435(중곡동),37.5693030877256,127.079044153204,0.3898225437980503,0.1873542960404092,0.3948568467992428,89.76085839866992,87.65883488856915,163728,65,32685,4.572885094775092
아시아주유소 (셀프),서울특별시 송파구 도곡로 438(잠실동),37.5046106505557,127.077393903247,0.1014947519090511,0.3220999231387404,0.3869035940111949,96.8754408015345,94.71152792899214,38760,241,9427,4.575623215803471
㈜창원이엔지,서울특별시 동작구 사당로 59(상도동),37.494936328044,126.961445941667,0.1433518968089881,0.2688122378607865,0.3878475508569317,97.34552038257878,94.6708188640541,62852,128,46166,4.575623215803471
삼육주유소,서울특별시 노원구 화랑로 822(공릉동),37.6386046072816,127.109024234645,0.5277310053565428,0.5622496846553915,2.2946837741947954,82.52367531864662,80.64991989942659,51450,84,42538,4.576278537288218
서일석유㈜락성주유소,서울특별시 관악구 남부순환로 1920 (인헌동 1659-1),37.477221910042,126.962389897985,0.2293620002000232,0.0996888560200753,0.3839307582097614,99.31210312170144,96.63851779766668,100361,78,29636,4.576322381359186
(주)새서울주유소,서울특별시 강남구 압구정로 154 (신사동),37.5258295895753,127.026526394126,0.35393055470368,0.1703936266561212,0.3897507900118893,94.1287416181308,91.7501078150918,224541,269,15876,4.577808430629359
구인주유소,서울특별시 구로구 경인로 558(구로동),37.5024542869959,126.879753886638,0.4701846113150255,0.3376416634802457,0.383526919396478,96.73167354647528,93.71587139044824,57000,200,36138,4.580769848068626
신내LPG충전소,서울특별시 중랑구 용마산로 691,37.6128164609389,127.100946121544,0.5378175653250994,0.1394579077271028,0.5018610595409484,85.23844608680926,83.29052786035001,53465,59,38205,4.581206685940029
현대오일뱅크㈜직영 삼성동주유소,서울특별시 강남구 테헤란로 619(삼성동),37.5099155151471,127.065115207351,0.5395881342449597,0.1949467270891405,0.5291769060389593,96.17508302205638,93.96024189190594,38760,269,12739,4.582311558813703
남서울가스(주),서울특별시 강남구 남부순환로 3154 남서울가스충전소,37.4976977542653,127.075475047487,0.2394498919639281,0.4131664547996087,0.3787595261323666,97.6194371747788,95.44176136723551,163503,269,37098,4.582422799389279
이케이에너지 주식회사,서울특별시 성북구 보문로 27,37.5779480661943,127.022800763795,0.1451691228857578,0.1283792693841013,0.3822219053367075,88.33517744130775,85.96795275481047,38959,73,16712,4.583395447309067
백제고분로주유소 (셀프),서울특별시 송파구 오금로 143(방이동),37.5110669836967,127.111049573145,0.4361800481247531,0.2037050422622063,0.3816687185032089,96.54080563187271,94.53343094937374,102555,241,26354,4.5834202427952775
㈜창원이엔지 홍제지점,서울특별시 통일로 455(홍제동),37.5891287172466,126.943337675172,0.1781154149794167,0.1134167073630856,0.3798534861722758,86.89470658106916,84.15119150892859,79640,108,22825,4.58537421181987
목동충전소,서울특별시 양천구 목동로 193 (에스케이충전소),37.5257086769264,126.864158822136,0.2377717357049448,0.1811448819455848,0.3718971720466876,94.26212731859148,91.17592363854294,67316,126,33056,4.5855307845354805
처음처럼주유소 ,서울특별시 구로구 오리로 1299(궁동),37.4973951468508,126.828965306109,0.1439933106966479,0.059385382339897,0.3762567987291133,97.6944602615888,94.47756469935123,51994,200,23332,4.585639543110489
능동주유소(현대오일뱅크㈜직영주유소),서울특별시 광진구 천호대로 584(능동),37.5556380138307,127.082501657519,0.2593426808293643,0.1581930075886621,0.3683309169892533,91.30346263065948,89.2055935520726,47232,67,21336,4.587192756879453
원천주유소,서울특별시 성북구 돌곶이로 142,37.6149596653136,127.052767760078,0.4571619395316507,0.134547052123767,0.3662123252802666,84.46587529284041,82.27363568864207,132385,73,24082,4.589150698204185
주식회사 중앙에너비스 에너비스,서울특별시 용산구 한남대로 82,37.5360397637014,127.006137723817,0.3543563485311503,0.1350964399688558,0.3601811232781668,92.893108527065,90.42687438730246,18881,93,22054,4.589826621517311
신정동주유소,서울특별시 양천구 안양천로 663(신정동),37.5063926687518,126.871123077795,0.550056615346073,0.4048512762872923,0.4100494840706499,96.3502000687732,93.29822162444395,57000,126,28579,4.590918990962353
마포주유소,서울특별시 마포구 마포대로 186 (공덕동),37.5505948047115,126.95563699696,0.3450561473782347,0.1699957215423189,0.35471524115811,91.16620081209037,88.47480513373019,70215,186,26184,4.600414420549374
연희주유소,서울특별시 연희로 129(연희동),37.5693077959774,126.932458194132,0.1515925579173171,0.201950854789841,0.349841381424848,89.10998317655825,86.31471837035977,42092,108,37428,4.6023112196861184
재건에너지 재정제2주유소 고속셀프지점,서울특별시 강동구 천호대로 1246,37.5364168582452,127.149372429092,0.4527327324476147,0.0748059378262863,0.3399810443047869,94.31013853414042,92.41881998377464,117694,273,45374,4.603588486073175
행촌에너지 공항주유소,서울특별시 강서구 개화동로 420 (방화2동 565-4),37.5743266748619,126.802387579015,0.2040159659427022,0.3542686097749827,0.3484637525200229,89.53338897822428,86.1679549951491,60973,265,23371,4.6040592081851095
지에스칼텍스(주)화랑주유소,서울특별시 성북구 화랑로 185,37.6078690506394,127.050739603739,0.2401762553234034,0.2211828071141958,0.3381983210470673,85.2309218689397,83.02248002026062,132385,73,13622,4.604139140195355
지에스칼텍스㈜ 도루코주유소,서울특별시 성동구 아차산로 180(성수동2가 19-14),37.5420274264746,127.063423424356,0.2572306272171192,0.470326889592289,0.3485787843148425,92.61434660022294,90.4154684961532,49392,69,10520,4.604788530789982
복지신정충전소,"서울특별시 양천구 안양천로 669 (신정동, 외5필지)",37.50710107946,126.870995526971,0.5673164987000776,0.3275982107432208,0.4028610504383952,96.27265283283492,93.21996382111352,57000,126,28579,4.606089742862322
청원주유소,서울특별시 마포구 월드컵북로 113 (성산동),37.5631741949394,126.913189228501,0.3492070571212833,0.1707703393732075,0.3368589991446085,89.84281457456649,86.96041075396998,39064,186,39500,4.606096217987136
(주)진우에너지 백운주유소,서울특별시 금천구 시흥대로 282 (독산동),37.4589135686193,126.899403873163,0.289875128554939,0.117077748605713,0.3312358551438171,101.45669278087249,98.52732696226585,50601,64,47573,4.6061459339993185
정해네트웍스(주)일진주유소,서울특별시 광진구 동일로 413(중곡동),37.5674520086168,127.077935863493,0.2079238517820437,0.2605992762700027,0.3307360395660614,89.95298327279595,87.84393594489184,163728,65,38677,4.606176497365319
지에스칼텍스㈜ 서호주유소,서울특별시 양천구 남부순환로 317(신월동),37.5385828916235,126.82701689593,0.1634825131376169,0.1835691280501329,0.3482693219352486,93.17380955722612,89.92985624422316,28561,265,36236,4.606547240244608
㈜신용구도일주유소 화랑로,서울특별시 성북구 화랑로 174,37.6069071610892,127.050090586822,0.1619563112786844,0.2495168384675109,0.3291875157903947,85.331521556607,83.1190184719009,132385,73,13622,4.608275416650978
(주)홈런주유소,서울특별시 서초구 양재대로2길 100-30 (우면동),37.4572824578308,127.016168490217,0.2757109131024573,0.1291685347972954,0.3298019246536837,101.66799526533865,99.21279715956128,181066,236,42683,4.608543408032506
주식회사 만정에너지,서울특별시 강남구 봉은사로 433(삼성동),37.5115512804432,127.047114626083,0.1901983485681478,0.1696737039583419,0.3303679484390204,95.8469124811698,93.5526347202554,20957,269,31062,4.608664529424818
제이제이에너지,서울특별시 은평구 응암로163 (응암동),37.5867583146722,126.915872690304,0.5534827971320531,0.1132486280096495,0.3708026464068685,87.217955117885,84.34595378690453,39064,134,24313,4.608960243876734
씨제이대한통운(주),서울특별시 관악구 남부순환로 1515 (신사동 507-24),37.4830223505096,126.918852484767,0.216808562274814,0.2567765428907932,0.3272357472978655,98.71517635228408,95.86196715046395,27515,78,24719,4.6091060922044695
지에스칼텍스(주)헌릉로주유소,서울특별시 서초구 헌릉로 177 (내곡동),37.4574039556534,127.060136995274,0.3831785131461548,0.2403551273563603,0.3258391634913071,101.93438855217224,99.6633045825525,231970,236,17455,4.609891084713853
위례드림주유소(셀프),서울특별시 송파구 위례중앙로10(장지동),37.4754218121822,127.128633567385,0.5761675680701831,0.2994558935063124,0.5273716623849377,100.68218363603252,98.71807534517863,118406,241,29102,4.610840452617156
현대오일뱅크(주) 직영장원주유소,서울특별시 중구 동호로 203 (신당동),37.5560376839411,127.009276893403,0.366881026987538,0.0299287955541735,0.3211784541581102,90.6905420923482,88.24770267970872,58984,58,5326,4.613207702857441
㈜부흥에너지 평화주유소,서울특별시 양천구 안양천로 657(신정동),37.5058610602272,126.870696366659,0.5241787872497842,0.4288651932276845,0.3516852587586198,96.41188728411048,93.35831434091018,57000,126,28579,4.6134217776653035
진양주유소,서울특별시 송파구 올림픽로 499(풍납동),37.5270124361515,127.118061832225,0.2822890875846821,0.0380463162959404,0.0413597536577901,94.88079047163288,92.92126859089171,79289,241,24426,4.6165610579442475
열린주유소,서울특별시 동대문구 한천로 263(휘경동),37.5843890962343,127.067683930685,0.2025335503219517,0.2423594207155367,0.302109354447108,87.98057089451908,85.83670090993188,163728,65,24666,4.616589415322278
㈜개봉오일,서울특별시 구로구 고척로 115(개봉동),37.5018938879983,126.846841845428,0.4004975716124388,0.0459265243023712,0.3149639723194997,97.03268376846628,93.8843788366253,27118,200,34105,4.61683701663769
수도석유(주)방배충전소,서울특별시 서초구 동작대로 26 수도석유(주)방배충전소,37.478846922911,126.982149992442,0.2073580068854307,0.215984750552742,0.3050228098331388,99.15935214753388,96.56886343448322,95736,128,23009,4.617357835772712
신일주유소,서울특별시 중랑구상봉로 58(망우동),37.5910104856682,127.093887634038,0.375612302366506,0.0523311483832378,0.3061705434223645,87.54295199893367,85.53507102665596,33744,59,33856,4.617415399479917
살피재주유소,서울특별시 동작구 상도로 334(상도동),37.4983604973766,126.951389038225,0.4036133250569,0.1287338165649974,0.315541842286602,96.96383680524768,94.24689049192,62852,128,46166,4.617422875399564
㈜선진주유소,서울특별시 강남구 도곡로 162 (도곡동),37.4910466850801,127.037701387421,0.367923475317899,0.0775363237333513,0.0245592983428849,98.04938114233424,95.70167862938186,63030,269,35556,4.617544186128418
현대오일뱅크㈜직영 신사현대주유소,서울특별시 강남구 도산대로 163(신사동),37.5195029758336,127.026318277671,0.4749551059114766,0.2069457755244305,0.3218281864647208,94.82812818357952,92.44524489635576,83560,269,15876,4.617948605374559
우장산주유소,서울특별시 강서구 강서로 292(우장산동 702-5),37.5518027646586,126.836681312113,0.166136469560494,0.2161278089475829,0.312705110735467,91.61749646918815,88.4069805961786,56170,265,36236,4.617973930843087
지에스칼텍스㈜화일주유소,서울특별시 영등포구 도림로 415 (문래동2가),37.5132569564825,126.89648174992,0.1570258938202906,0.1901030071823744,0.3079981343341502,95.44582716731672,92.49706975568836,134976,177,32540,4.61803446860775
삼호주유소,서울특별시 광진구 천호대로 809(광장동),37.545722198887,127.103717248078,0.2260572068466021,0.1117208602417055,0.0277036262824189,92.64151155847856,90.63441052936288,32256,67,34362,4.618084755924316
훼미리주유소,서울특별시 송파구 중대로 58(문정동),37.491231007616,127.115353624591,0.4310440195100083,0.125197697647785,0.3130388336894718,98.77408531853725,96.76705092182702,85016,241,27521,4.618241922224615
대성산업(주) 디큐브주유소,서울특별시 구로구 경인로 650(신도림동),37.5077123709366,126.886868113792,0.3064266130054024,0.121897250031999,0.0472728487178649,96.10880363858324,93.12108627751137,57000,200,36138,4.618954820468349
㈜재건에너지 재정제2주유소 ,서울특별시 동대문구 사가정로 90(전농동),37.5759083008078,127.055631542737,0.1739250134409884,0.1556025508780288,0.3168587015614332,88.80357157265934,86.59381960166601,163728,65,29220,4.618983279207824
비케이서비스산업(주),서울특별시 양천구 남부순환로 311 LPG충전소,37.538998108737,126.826734649905,0.1822164013870928,0.1558483611663677,0.3181525835949651,93.13103951771308,89.88573155865436,28561,265,36236,4.618983279207824
현대오일뱅크㈜직영강서제일셀프주유소,서울특별시 강서구 화곡로 273(화곡6동 983-1),37.5492791514446,126.846964931559,0.0953868778895633,0.0911213634144906,0.3076666460283681,91.79852354904854,88.63209950596122,56170,265,25303,4.6190384738176995
해뜨는주유소,서울특별시 강동구 상일로 132,37.5587673802815,127.171390708337,0.4691052820250823,0.1253752527832001,0.0528221667551742,92.25190734774576,90.03662891912136,205654,273,22764,4.619041048428838
행촌주유소,서울특별시 영등포구 도신로 130 (신길동),37.508496518797,126.905985305925,0.1596238213999738,0.104988521501162,0.0500834090243206,95.93278426285262,93.02439934939088,97698,177,22714,4.619730098041526
구천면주유소,서울특별시 강동구 구천면로 357,37.5504579000579,127.138226914948,0.3295188942551076,0.1886983754671969,0.0438130786853233,92.6019243944541,90.76279400370191,159345,273,34271,4.619833766459665
현대오일뱅크(주) 직영소월길주유소,서울특별시 용산구 소월로66,37.5544085670544,126.977734582566,0.48822611537776,0.2643297197480597,0.3016796557740175,90.76610340287807,88.17642595469844,10413,58,5222,4.6199671712626005
세원제1주유소,서울특별시 강서구 양천로 311(가양1동 272-31),37.5704960243117,126.83807594146,0.1337499836730384,0.2564796457374462,0.3002291937450969,89.54211452806041,86.32862986271363,56170,265,34359,4.620039681019468
남성대주유소(셀프),서울특별시 송파구 송파대로 52(장지동),37.4753715575202,127.127533028931,0.5796845026893958,0.2871945692990831,0.5072694806139757,100.67301741455512,98.70409331680288,118406,241,28841,4.620226927500855
㈜삼표에너지 정릉주유소,서울특별시 성북구 보국문로 35,37.6076158170175,127.00997322889,0.4704856101480951,0.1583868674166767,0.3014648391156795,84.97801575697632,82.56441988421581,168540,73,16567,4.620754680072859
백산주유소,서울특별시 금천구 시흥대로 174 (시흥동),37.4497187855494,126.902913626412,0.3815794530367374,0.1749905094574559,0.3123686572894235,102.46196460519865,99.54744780251885,28178,64,34054,4.621226113615455
성원이앤에스(주)은평지점,서울특별시 은평구 통일로968 (진관동),37.6292162125585,126.919673603924,0.0821795672555965,0.0704625655958249,0.2996360231270881,82.49629597551827,79.63969036875976,59500,134,55034,4.621396335763525
현대오일뱅크㈜직영 도곡셀프주유소,서울특별시 강남구 남부순환로 2718 (도곡동),37.4854150814069,127.043319375098,0.3440874211498312,0.1517574703828355,0.2997561571030189,98.71060491345426,96.38416971116776,64381,269,21274,4.6217025801553335
뉴타운 셀프주유소,서울특별시 은평구 통일로1031 (진관동),37.6346304765514,126.916643637664,0.423246663084839,0.1577951552497256,0.0278454118490472,81.9061072732983,79.03424285747015,59500,134,55034,4.622328271068276
지에스칼텍스(주) 선천주유소,서울특별시 서초구 동작대로 206 (방배동),37.4949333176608,126.983215580857,0.1876024043431595,0.0568788113783025,0.3009624932988666,97.37691604885887,94.79518643012332,95736,128,28786,4.622353163478163
대성석유(주)연일주유소,서울특별시 서초구 남부순환로 2451 (서초동),37.4826019457759,127.018580385827,0.4355961622644668,0.4009781074276686,0.2985501800702062,98.87383969258111,96.4394287428693,72622,236,20622,4.62275030951337
일원주유소,서울특별시 강남구 양재대로55길 3(일원동),37.4910581740806,127.087818878087,0.2319992177193654,0.0501147803641428,0.2794767210397986,98.47542396699964,96.3470290086168,163503,269,14987,4.622891204195887
SK에너지㈜ 이가주유소,서울특별시 금천구 시흥대로 441 (독산동),37.4731511316389,126.897896050978,0.2388869274832292,0.1159160273994579,0.2777577698538401,99.88481668733988,96.94762176838287,71681,64,26569,4.623119019768172
(주)성북주유소,서울특별시 성북구 보문로 142,37.5876710055984,127.018389424981,0.2397059408737203,0.0920496867432583,0.2879028983168932,87.23269846006704,84.84963586019803,13720,73,23044,4.623372961507992
방화주유소,서울특별시 강서구 방화동로 58-2(방화1동 609-59),37.5655628801505,126.812436402704,0.4159497209611393,0.1081738622595006,0.2843620015973807,90.36935743621784,87.05091257018307,56170,265,23371,4.623457487921517
현대오일뱅크㈜직영 재동주유소,서울특별시 종로구 율곡로 58(경운동),37.5763469069387,126.985811114051,0.2096451972562828,0.3210706612483576,0.2833929967658505,88.35118938137788,85.80613138652595,55147,79,2642,4.623506267229336
에스케이에너지(주) 양지주유소,서울특별시 마포구 마포대로 69 (도화동),37.5421183825596,126.948522081226,0.2324545178305276,0.2208220296762619,0.2747898369217717,92.10833795436668,89.38382477805048,124183,186,17633,4.623530838476442
현대오일뱅크㈜직영 여의도현대주유소,서울특별시 영등포구 의사당대로 154 (여의도동),37.5176801059507,126.927478884592,0.3298031430372052,0.2075330499277569,0.295684089409978,94.8486794446315,92.03081306742172,69391,177,32923,4.62365684069513
㈜안국에너지 삼보주유소,서울특별시 연희로 78(연희동),37.5650243399688,126.929929031318,0.4228372933795501,0.1138925901019606,0.2820927460341011,89.5903360294045,86.78345878343032,42092,108,37428,4.624050118418358
대성산업(주)강남주유소,서울특별시 서초구 반포대로 284 (반포동),37.5046512165389,127.001827980942,0.4432751753748739,0.1556541025087585,0.2975606950948551,96.3557051983428,93.85772297877348,23053,236,15742,4.624234484990143
현대오일뱅크(주) 팔레스주유소,서울특별시 서초구 사평대로 136 (반포동),37.5001585428224,126.999179646152,0.2116363839264337,0.2280831859759514,0.0645031006977192,96.8441222673468,94.33296129047297,23053,236,15742,4.624354401609315
복지개화충전소,서울특별시 강서구 개화동로 416,37.5749266273701,126.801785113951,0.2752959429791852,0.4297036973119644,0.282713541524086,89.47545349762272,86.1071382258125,60973,265,23371,4.624400658742686
한일주유소,서울특별시 영등포구 도림로 486 (문래동3가),37.5169565953997,126.889839721107,0.3737622262906039,0.1267544041775211,0.2773924030327089,95.06882972424584,92.09167618750163,134976,177,32540,4.6244570327650365
대성주유소,서울특별시 강서구 강서로 472(등촌3동 684),37.5674698231778,126.841438957955,0.3452227423009883,0.1888439834926013,0.2905893318897213,89.84271362982592,86.64498013287913,56170,265,34359,4.6246073327224915
에이치지 가로공원주유소,서울특별시 양천구 가로공원로 165(신월동),37.5370203692233,126.834298807985,0.2857536386988742,0.1960513135803228,0.2764927584728719,93.27143112527924,90.0579312695651,73636,126,14461,4.624633690993932
청계로주유소,서울특별시 성동구 청계천로 454(하왕십리동 291-9),37.5700413114581,127.027391824017,0.2505046046201278,0.1341659788911323,0.291414175682314,89.23884308757198,86.88902432977963,38959,65,36137,4.6247115890671395
주식회사 대양씨앤씨,서울특별시 종로구 사직로 65(사직동),37.5745415909136,126.966616657335,0.329562082885161,0.2657053363016086,0.2917055417871726,88.51487671004473,85.8786627300423,75515,79,9355,4.624898103997977
현대오일뱅크㈜흑석셀프주유소,서울특별시 동작구 현충로 101(흑석동),37.5081000291855,126.965239054896,0.0222382516186559,0.1760765811640837,0.2843792650807883,95.88729698551424,93.23114848715196,62852,128,30694,4.624957248870542
잠실주유소 (셀프),서울특별시 송파구 송파대로 442(송파동),37.5063758984326,127.106656298253,0.4035301356184179,0.1931855290015431,0.2957913582555933,97.00216793860407,94.970610030169,114268,241,16713,4.625192573222043
광호주유소,서울특별시 연희로 266(홍은동),37.5807686609718,126.936581879011,0.3596164367921838,0.2764817779224541,0.2893705629957574,87.83106891288942,85.05527234831695,79640,108,27499,4.625337755732743
제트라인디엠주유소,서울특별시 송파구 중대로 183(가락동),37.4985459828951,127.125371637464,0.40811995827614,0.2794737443619562,0.2925544168182501,98.10165645107016,96.14609343178395,85016,241,25883,4.625431115111909
대성주유소,서울특별시 송파구 마천로 230(마천동),37.5000478635493,127.143135663709,0.4138704313198649,0.190381250293853,0.2935776432547669,98.18874484267116,96.31384205666129,105516,241,38037,4.6255656765322675
지에스칼텍스㈜ 주성주유소,서울특별시 강남구 영동대로 716 (청담동),37.5219744573657,127.056728809329,0.42685325732708,0.24071602387042,0.292820649289086,94.77076114603118,92.52658770241834,136724,269,25489,4.625717657553886
매봉주유소,서울특별시 영등포구 도신로 248 (신길동),37.5130406356457,126.918333173452,0.1891271138007321,0.1393751282939473,0.2957220071611824,95.386744644113,92.5300134570021,97698,177,22714,4.626077459781014
sk삼미상사(주)서부주유소,서울특별시 성산로 255(연희동),37.5677454628917,126.918985802478,0.4702861189016785,0.3701441234197239,0.2812253677725088,89.3166946837741,86.46011242386336,42092,108,16884,4.626210493787608
(주)진양가스,서울특별시 강남구 도곡로 142,37.4905598370779,127.03578157505,0.2469156606684512,0.2412150497510619,0.1415687328854163,98.09080460585886,95.73449070972694,63030,269,35556,4.626286401623302
극동유화㈜ 대안주유소,서울특별시 도봉구 마들로 574 (창동),37.6615142612008,127.047499715993,0.2317548998520418,0.1998964578837562,0.140645498890801,79.27833567186818,77.09948084194396,37487,47,28410,4.62642096304366
양평동충전소,서울특별시 영등포구 선유로 157 LPG 충전소,37.5280403794609,126.891021037809,0.2407599820936896,0.2002707345368273,0.1583851826753365,93.83464585938373,90.86039155124246,60425,126,40737,4.62642096304366
한신주유소,서울특별시 노원구 동일로 1089(공릉동),37.6269756281327,127.071967647121,0.2331368808816738,0.1918912868993578,0.1440008996731472,83.33147878321721,81.24941496293543,147543,84,37184,4.62642096304366
대성산업㈜노량진주유소,서울특별시 동작구 노량진로 172(노량진동),37.5135542349837,126.945015161205,0.4089215690045228,0.3595462874626968,0.2915980163317749,95.28071344088757,92.53802665523716,62852,128,32114,4.626454290301007
개화주유소,서울특별시 강서구 양천로 57(방화1동 488-1),37.5735472850738,126.810053543861,0.2180923045867357,0.2113960895028996,0.1180622430481024,89.52106132086793,86.18789551471279,60973,265,22544,4.626477258589866
(주)블루원에너지 직영 성산대교주유소,서울특별시 마포구 성산로 144 (성산동),37.5643351190322,126.909458037833,0.2172825892758421,0.2296698900328669,0.1619196177435326,89.72788580983179,86.82864486224352,39064,186,39500,4.626613467726844
㈜중앙에너비스 혜화지점,서울특별시 종로구 창경궁로35길 1(혜화동)  ,37.5860654223146,127.00107864406,0.2132303939741029,0.192510966656164,0.1580857593565933,87.32584073523682,84.85784610985574,46010,79,19392,4.626748029147202
삼영주유소 ,서울특별시 동대문구 답십리로 258(장안동),37.5722270053461,127.068815663753,0.4300144879725888,0.0265098335114516,0.1109816671009632,89.3331128054995,87.18422973776912,163728,65,28055,4.626809707203169
GS칼텍스㈜ 대방주유소,서울특별시 동작구 여의대방로 214(대방동),37.5057358255661,126.922881347334,0.3325407472354137,0.0641489995198787,0.0628382648929016,96.1847175034931,93.34747920784136,69391,177,20483,4.626895900987616
대성산업㈜ 신창주유소,서울특별시 도봉구 덕릉로 267 (창동),37.641453403829,127.040298160768,0.2290776604893984,0.1539125321740731,0.1517136179508992,81.43238701644344,79.19745232612856,46744,47,28957,4.627020806117705
현대오일뱅크㈜직영 한양주유소,서울특별시 강남구 압구정로 302(신사동),37.5288083225857,127.034160991395,0.1892349684002255,0.141768712657248,0.2899952187643874,93.84664883298012,91.50428198412264,130255,269,25902,4.62728839071593
한이에너지㈜ KLP제1주유소,서울특별시 도봉구 도봉로 596 (창동),37.6577407598919,127.040523646244,0.2874270106354503,0.0232128554748638,0.1767191431865851,79.63441427932767,77.41433779276196,46744,47,18461,4.627319980474438
현대오일뱅크(주)직영 쌍문셀프주유소,서울특별시 도봉구 노해로 161 (쌍문동),37.6490837065592,127.026816404033,0.2367473532260259,0.1166727744442321,0.0683692586803286,80.48690133907911,78.18639511167083,46744,47,21445,4.62735934320149
상계동주유소,서울특별시 노원구 노원로26길 191(상계동),37.6583847492925,127.071218588225,0.1942542672319603,0.2097804842316008,0.1143703430798974,79.86468587434473,77.81179849926826,37487,84,23737,4.627376037494248
박물관주유소,서울특별시 강서구 양천로 53길 97(가양1동 26-1),37.5674992334083,126.850301675636,0.1902554969393316,0.2238826809950612,0.1267391950385715,89.75680554057223,86.59696241571773,124750,265,34359,4.627512246631225
에쓰-오일(주) 염리동 주유소,서울특별시 마포구 백범로 126 (염리동),37.546289031379,126.944762996986,0.1947799510487101,0.2529771031894715,0.1165455420194906,91.64789666690407,88.90699120034208,85942,186,16177,4.627594125607998
형산석유㈜ 원주유소,서울특별시 양천구 남부순환로 408(신월동),37.5311594818326,126.831011469112,0.2103717857314586,0.1072436541359753,0.0722106142403528,93.95071547217404,90.7265605488378,28561,126,14934,4.62759417359239
그린에너지컴퍼니 용강주유소,서울특별시 마포구 토정로 258 (용강동),37.543028193238,126.938847645255,0.1921267818823828,0.1973139291127412,0.1652750651022176,92.01602601776564,89.24847540879472,43772,186,22672,4.627646808051583
약수주유소,서울특별시 중구 다산로 173 (신당동),37.5590367888841,127.012667988504,0.093760230420264,0.0920288144601071,0.0594739236442568,90.37455041403535,87.94901933418222,58984,58,9087,4.627682814145549
현대오일뱅크㈜ 번동셀프주유소,서울특별시 강북구 한천로 963,37.635563621624,127.032887089001,0.1646931657082316,0.2174067082585291,0.0683220085093207,82.02603529435582,79.74752672491722,46744,41,18578,4.627762522878035
개봉충전소,서울특별시 구로구 경인로 364 개봉LPG충전소,37.4965826589845,126.860609293607,0.3564619000200328,0.1200895677147438,0.0690523749408085,97.50967257729464,94.41809134040828,27118,200,25636,4.627788532262765
현대오일뱅크(주)직영 금천제일주유소,서울특별시 금천구 남부순환로 1410 (독산동),37.4802057470935,126.9075034274,0.3769181151574647,0.1731369195390122,0.2898025190545342,99.06409776161522,96.16480568285073,27515,78,20490,4.627817746696541
현대오일뱅크㈜직영 양천셀프주유소,서울특별시 양천구 목동로 17(신정동),37.5104731119583,126.871265587745,0.2297401347620322,0.1026563503712974,0.2625445026780131,95.89766669265096,92.84517001210428,134976,126,28579,4.627829852818385
(주)유진주유소,서울특별시 송파구 동남로 325(오금동),37.5045223318768,127.138382736122,0.2339683280151653,0.1154927926710917,0.2622660533444361,97.62913581452426,95.73790201889786,105516,241,38037,4.627829852818385
지에스칼텍스(주)내곡주유소,서울특별시 서초구 헌릉로 210 (내곡동),37.4553162163614,127.063080684487,0.1967337060530707,0.1574622002949116,0.0780441785667727,102.18903816732576,99.92905151242216,231970,236,17455,4.6279094045212315
송파주유소 (셀프),서울특별시 송파구 송이로 28(송파동),37.5025530777453,127.116428012121,0.1639599564370106,0.1539123694302424,0.2729894018133765,97.54421030848934,95.55275064947128,85016,241,24008,4.627974205636318
㈜화동유업,서울특별시 금천구 시흥대로 484 (독산동),37.4768277533578,126.899110569642,0.2147267695993077,0.1070439544200244,0.1182659286495292,99.4719901208207,96.53917970961064,71681,200,25055,4.628086257157251
한영가스충전소,서울특별시 도봉구 도봉로 627 (쌍문동),37.6606567867216,127.04130428144,0.1962768398051272,0.2346103204559469,0.2670837697260165,79.31878954841082,77.10546809104933,46744,47,28410,4.628097549446349
하이웨이주유소,서울특별시 강서구 공항대로 432(화곡6동 1125),37.5545398850186,126.854951579164,0.2948273266335874,0.3364893054839162,0.0622211194379002,91.14779112963254,88.01297424336612,124750,265,30025,4.628232732233576
서초꽃마을주유소,서울특별시 서초구 반포대로 69 (서초동),37.4864727516209,127.009679178115,0.1458438413822452,0.2117119576939783,0.0664525426443536,98.40314565334656,95.93217593512776,72622,236,32379,4.628254043535141
SK에너지㈜직영상계주유소,서울특별시 노원구 노해로 527(상계동),37.6560120786901,127.066635239734,0.4012401010329706,0.0909603180519477,0.076735815852314,80.07531983859378,77.99498260827889,37487,84,19629,4.628258340495658
극동유화(주) 전당앞주유소,서울특별시 서초구 남부순환로 2391 (서초동),37.4805526438086,127.011978400234,0.2371532981012919,0.3376656169145136,0.2687249043153422,99.06954203017683,96.6060451015419,72622,236,32379,4.62829625103224
정직한 주유소 (셀프),서울특별시 송파구 오금로 455(거여동),37.4955776534144,127.140323807598,0.2018189083334369,0.179476590978784,0.1481964354616021,98.6365913659706,96.74432538907786,85016,241,38037,4.628444254548054
현대오일뱅크㈜ 성동셀프주유소,서울특별시 성동구 마장로 311(마장동 771),37.5670168870809,127.04372064792,0.2009460619042148,0.1530543244836054,0.158470265096192,89.68787403636308,87.41420271404311,46649,69,22706,4.628444254548054
삼화셀프주유소 (셀프),서울특별시 송파구 백제고분로 125(잠실동),37.5066508882331,127.080887734191,0.2727803384148318,0.0617032799953554,0.2613706726894483,96.68525177453316,94.53853310412303,38760,241,9427,4.628525616843502
에스케이에너지 주식회사 안국주유소,서울특별시 마포구 양화로 33 (합정동),37.5493308066931,126.912557082288,0.4186744861286762,0.0911446780254945,0.2682137986121915,91.38027042678664,88.49620336185056,128203,186,17064,4.628525616843502
현대오일뱅크㈜직영 영등포제일셀프주유소,서울특별시 영등포구 가마산로 379 (대림동) ,37.5024020673961,126.899464416873,0.3358324672552791,0.1190479133281197,0.104709290454271,96.6354629351762,93.70068712030408,57000,177,25205,4.628547313582795
(주)노일가스,서울특별시 노원구 동일로 1601 동일로가스,37.6715477191203,127.055441250864,0.2036731335767085,0.1643200948959165,0.1305199208215578,78.24671790825258,76.1211855779943,87685,84,37857,4.628673235171138
위례제일주유소(셀프),서울특별시 송파구 위례서로 260(거여동),37.4878161557458,127.142694072222,0.1970332253106608,0.214609428964504,0.1956455559966133,99.52080007573603,97.63067134812682,85016,241,12255,4.628736595610841
㈜정수에너지개발,서울특별시 영등포구 가마산로 414 (신길동),37.5037333122657,126.902813303561,0.214266383307409,0.2602471296180099,0.2606935821449268,96.47362114837736,93.55255670049073,57000,177,19600,4.628816826137652
상아주유소 (셀프),서울특별시 송파구 거마로 82(마천동),37.5001269475186,127.147837632763,0.2997467690424878,0.0750546681402505,0.2497257025830774,98.25080096289712,96.39693536695326,105516,241,18150,4.628854900820539
㈜석산에너지,서울특별시 강북구 삼양로 316,37.6316886416458,127.017918788236,0.2151095916078487,0.1126104022227537,0.1975094414929729,82.35506706652696,79.99597643935802,46744,41,29916,4.6289216946962
SK에너지㈜가양주유소,서울특별시 강서구 강서로 498(가양1동 151-1),37.5697365483757,126.841978506958,0.2212051510468753,0.0988175520392939,0.1569488153910727,89.58742242903911,86.39094685362602,56170,265,34359,4.628938352691407
장안동가스충전소,서울특별시 동대문구 천호대로 353 장안동가스충전소,37.562969658404,127.058768568774,0.2010006693084862,0.2441385563528232,0.2178149457402362,90.26017602122567,88.05545139327032,47232,65,28530,4.628954683724591
서울석유(주) 은평뉴타운주유소,서울특별시 은평구 통일로924 (불광동),37.625331136968,126.920305351576,0.3688763333790098,0.108407596365133,0.1415919011119203,82.92518905575103,80.07188075092995,51143,134,17151,4.629057586854063
잠실셀프주유소 (셀프),서울특별시 송파구 송파대로 397(석촌동),37.5027344100674,127.109010365586,0.3245192033816291,0.1110831426917905,0.1671517095620588,97.43117821766656,95.40676718109088,114268,241,31602,4.629057586854063
화랑대주유소,서울특별시 노원구 화랑로 483(공릉동),37.6195769270747,127.080835709226,0.3710008713476571,0.1065801497912628,0.1683511923473936,84.24562246731959,82.20187365445781,78083,84,42538,4.629057586854063
동일석유㈜ 개나리주유소,서울특별시 양천구 남부순환로 442(신월동),37.5282624685753,126.832956410977,0.3067624548923711,0.1183862254709836,0.1686990474282018,94.2506276801294,91.03568900016217,103550,126,14934,4.629057586854063
현대오일뱅크(주)직영사평로주유소,서울특별시 서초구 사평대로 350 (서초동),37.503281185781,127.02150866453,0.4422289275732625,0.0533277490737272,0.1408667569593357,96.59789216781066,94.18560261644872,83560,236,34443,4.629057586854063
신양주유소,서울특별시 양천구 지양로 67(신월동),37.5215294915741,126.833868932502,0.4059371677104886,0.1000226266614841,0.1812143317585808,94.98421646743525,91.77600072475846,103550,126,19199,4.629057586854063
(주)송만에너지 도봉제일주유소,서울특별시 도봉구 도봉로 783 (도봉동),37.6744735831616,127.044066665278,0.4290711260715375,0.1131697872385128,0.1766238174943597,77.81662952505141,75.63092382855348,87685,47,20622,4.629057586854063
㈜우남에너지문화사랑주유소,서울특별시 세검정로 87(홍제동),37.5954419804145,126.948477443752,0.2484649612474919,0.0659702215721279,0.1802566094451845,86.19016098788914,83.4717576028554,79640,108,22825,4.629057586854063
(주)대농석유 남태령주유소,서울특별시 서초구 과천대로 838 (방배동),37.4668335881167,126.987972808104,0.3220943279102346,0.0694151698410188,0.1208331284347409,100.5060298094394,97.93672316125068,78555,236,18553,4.629057586854063
㈜자연에너지 햇살주유소,서울특별시 도봉구 방학로 142 (방학동),37.6631054665765,127.036402243593,0.3352715313961287,0.1136239153824037,0.1538073385974355,79.00785064384569,76.76996543061452,46744,47,19354,4.629057586854063
동아주유소,서울특별시 구로구 도림로 91(구로동),37.4908381684642,126.89317436118,0.2884879288374047,0.0769463167876086,0.1275623415224588,97.94615200447838,94.98729466856372,57000,200,23052,4.629057586854063
씨엔에스유통(주)한성주유소,서울특별시 영등포구 여의대방로 227 (신길동),37.5072579156295,126.922915747543,0.3938440100288543,0.1101473328323117,0.1682507750711123,96.0157671757351,93.17863572490822,69391,177,20483,4.629057586854063
(주)서부티엔디,서울특별시 양천구 신정로 167(신정동),37.5093449690455,126.841883881962,0.2577124815158905,0.0887476116768797,0.1374394736813148,96.2534146693153,93.08246905810068,104198,126,50587,4.629057586854063
현대오일뱅크㈜직영신대방셀프주유소,서울특별시 동작구 시흥대로 616(신대방동),37.4870838318408,126.905639241172,0.2757002705207128,0.1108699569614537,0.1763502278121851,98.3083823885487,95.4008242364716,27515,177,17523,4.629057586854063
㈜경동주유소 ,서울특별시 동대문구 이문로 191(이문동),37.6036482256361,127.061800563122,0.3346416128955771,0.1073316768749375,0.1642653488230797,85.79855447129584,83.6423439960264,132385,73,35315,4.629057586854063
서원주유소,서울특별시 송파구 중대로 154(가락동),37.4957794385955,127.12478101547,0.4057588432794749,0.0976238948443174,0.1454535315862569,98.39721508156346,96.43625700707446,85016,241,25883,4.629057586854063
대성산업(주)오류동충전소,서울특별시 구로구 경인로8길 31,37.4927944201018,126.837642030891,0.2549906403447592,0.092674170001965,0.1550464713322391,98.11918195636696,94.93812052600389,36665,200,23332,4.629057586854063
시몬주유소,서울특별시 구로구 부일로 871(온수동),37.4929740001349,126.823995506922,0.2085238689132105,0.3874781823453324,0.2588670355060758,98.23207940135076,94.99787807182236,36665,200,23332,4.629122844815674
지에스칼텍스(주) 세창주유소,서울특별시 성북구 동소문로 323,37.6088083513732,127.029473489653,0.1653620306277256,0.2657504982035825,0.2637296984565717,84.96172196754507,82.64667038308198,13720,73,21728,4.629127690006007
대성석유㈜ 길동주유소,서울특별시 강동구 천호대로 1168,37.5334199332869,127.141184621649,0.3200713448267535,0.1300545744744946,0.0755851165129021,94.50962913191756,92.66393269788588,105516,273,45374,4.629128405039691
불광주유소,서울특별시 은평구 연서로314 (불광동),37.623209991003,126.927945702304,0.2701169355137551,0.2140786580663987,0.2455521497745997,83.13903347400637,80.32312861910123,51143,134,27280,4.629193805079699
방아다리주유소,서울특별시 강동구 동남로 811,37.546060636112,127.155495129904,0.264076426389982,0.2957994464884445,0.263306308523145,93.35799564635198,91.37161051499064,117694,273,17327,4.629197375741169
씨앤에스에너지㈜ 미아셀프주유소,서울특별시 강북구 도봉로 200,37.6265260054647,127.026459618797,0.2345640510644276,0.2333610481298108,0.2322749013937364,82.98064788018054,80.6622808727693,46744,41,21685,4.629326621377182
대원주유소,서울특별시 광진구 용마산로 122(중곡동),37.56455803366,127.08705708781,0.2369728053880708,0.2233749607743985,0.1764555981826123,90.3717767062303,88.30392479950352,163728,67,16177,4.629326621377182
㈜엠에스주유소,서울특별시 영등포구 대림로 230 (대림동),37.5013096818947,126.897465178935,0.1257740809688632,0.2385858967373407,0.2450345834919784,96.76547776960253,93.8225939871012,57000,177,25205,4.629342207458286
㈜지에스이엔알 미아주유소,서울특별시 강북구 도봉로 124,37.6201205643458,127.028984544911,0.4097980504226156,0.1650356333389384,0.2731717850170717,83.7066239570434,81.39681040789029,46744,41,25998,4.629364895885424
㈜영원에너지 풍기주유소,서울특별시 용산구 원효로178,37.5355890312127,126.962708973419,0.1853781447806304,0.243096255716441,0.2435444746720763,92.8344930162266,90.17235123661396,55718,93,11664,4.629381492230196
남성주유소,서울특별시 송파구 백제고분로 474(방이동),37.5126146696919,127.114042344325,0.2751118733645704,0.1084302555022898,0.1859164268652998,96.40872026485636,94.4163573332166,102555,241,26354,4.629382751121743
복지장안충전소,서울특별시 동대문구 한천로 169,37.5761454778909,127.067169764519,0.4379395583492254,0.0761821303819624,0.231952750738448,88.88471331508568,86.73119702556876,163728,65,18629,4.629382751121743
방배동주유소,서울특별시 서초구 효령로 29 (방배동),37.4781641318381,126.987763194218,0.2752210380075813,0.0716589409863478,0.1844174351743899,99.2484892640062,96.68146652782016,95736,236,18553,4.629382751121743
뉴신정주유소,서울특별시 강서구 곰달래로 207( 화곡2동 862-16),37.5315624983884,126.856035365887,0.3299202550581455,0.0591088378602716,0.1874835779791971,93.67787451655953,90.55606983339462,22296,265,17785,4.629382751121743
범아주유소,서울특별시 중랑구 동일로 881(묵동),37.6092287067076,127.077627212682,0.3394300914576301,0.0702742898933509,0.241992773377468,85.34815200120896,83.27731835360277,78083,59,18624,4.629382751121743
현대오일뱅크㈜ 직영 유진주유소,서울특별시 강남구 논현로 152 (도곡동),37.4833598928005,127.04279289071,0.4013004270521518,0.1046588706421668,0.2104532513546664,98.93434827556466,96.60448285539744,64381,269,21274,4.629382751121743
동일석유㈜강남주유소,서울특별시 동대문구 사가정로 130(전농동),37.5775491902123,127.059334965058,0.2141485202381875,0.1303832154373257,0.1418251029678168,88.65562205115548,86.46516535493598,163728,65,18629,4.629390089325591
서초주유소,서울특별시 서초구 반포대로 64 (서초동),37.4862238886445,127.010772295666,0.2132788589188797,0.1258344237232011,0.1590003381211478,98.4355282768076,95.96915077708832,72622,236,32379,4.629390089325591
서울석유(주) 박석고개주유소,서울특별시 은평구 통일로945 (갈현동),37.6272854815736,126.919398367026,0.2128735917540181,0.2366360486271027,0.1934469007683959,82.71133629817739,79.85349041427453,51143,134,55034,4.629411257494392
㈜가재울뉴타운주유소,서울특별시 모래내로 205(남가좌동),37.5732608965137,126.922462434868,0.3641469204446996,0.12248612379,0.1135475733711886,88.69473868507467,85.85374449940204,39064,108,30508,4.629417378126828
SK에너지㈜ 진달래주유소,서울특별시 강남구 도곡로 208(도곡동),37.4922419642868,127.041968417985,0.2874591175772057,0.2550956402034184,0.2575201552830453,97.94587203432742,95.61742386300736,64381,269,37269,4.629437778196072
반포그린주유소,서울특별시 서초구 서초중앙로 239 (반포동),37.503204616056,127.010876972267,0.3416605034215964,0.2063812010722417,0.2423646936522824,96.5537740383026,94.09481350299046,39892,236,19486,4.629464128264255
세원주유소,서울특별시 강북구 한천로 918,37.6342699682231,127.037763773459,0.2446999149408457,0.2368704205260448,0.09500600847347,82.20617443134378,79.95217093840216,46744,41,18578,4.629525265879826
지에스칼텍스(주)신사제일주유소,서울특별시 은평구 증산로423 (신사동),37.594096038824,126.913935526396,0.2244095131703926,0.1665375147069892,0.2559069526312675,86.41098761910024,83.52940916218203,39064,134,26984,4.62953317557038
㈜자연에너지 국민주유소 ,서울특별시 동대문구 답십리로 223(답십리동),37.5730120581786,127.064971211446,0.1869873605189017,0.2155008476952757,0.0902816345127317,89.20909691847739,87.04226837406397,163728,65,28055,4.62965804548698
명화가스(주),서울특별시 관악구 관악로 96,37.4737978801722,126.953495247442,0.2485929924147836,0.2625144329493709,0.1898057152507968,99.68964058725156,96.9786776870538,100361,78,37132,4.629664772557411
㈜미래아스팔트 신우주유소,서울특별시 가좌로 106(홍은동),37.5822575743325,126.926519409089,0.2146378016248588,0.3642574357572518,0.2114270980929488,87.6860447708919,84.86353880244116,39064,108,27499,4.629673960415894
정다운주유소,서울특별시 도봉구 도봉로 635 (쌍문동),37.6611444410209,127.041693852595,0.2166384767700576,0.2983494052364583,0.2161886269523244,79.26821628657285,77.05743822458187,46744,47,28410,4.629673960415894
한양에너지(주),서울특별시 광진구 동일로 381 한양에너지(주),37.565097868775,127.076586700906,0.2286461216764812,0.3142257279968387,0.2392150048313202,90.1981879635129,88.08054641748765,163728,65,38677,4.629673960415894
(주)세지,서울특별시 영등포구 선유로 37 세지충전소,37.5174413381018,126.888594168258,0.2772282955877341,0.1270821154078426,0.2533377253256928,95.02172087233458,92.03927029795138,134976,177,32540,4.629724965364571
천호 현대주유소,서울특별시 강동구 천중로 67,37.5451778567405,127.129496550003,0.1450873870753284,0.2212995774750037,0.1574080557880015,93.04913152626308,91.16260591744644,16228,273,33825,4.6297485264399745
우일에너지(주),서울특별시 성북구 종암로 201 우일에너지,37.6079713666524,127.030402852357,0.0971610883633246,0.344827333162332,0.1583709088148125,85.06071320370512,82.74977354480885,13720,73,21728,4.6297485264399745
현대오일뱅크(주) 직영방배현대주유소,서울특별시 서초구 동작대로 182 (방배동),37.492753436692,126.983325076533,0.1187601122480755,0.2270181979082616,0.1454777900081715,97.61902401450428,95.03717474632296,95736,128,28786,4.6297485264399745
영진주유소,서울특별시 구로구 구로동로 20(가리봉동),37.4837072698183,126.887014444359,0.2887103953573092,0.2503846795117209,0.2519052770012308,98.76739903483404,95.78487610039062,28199,200,30093,4.629767062173109
(주)안국에너지 망원동주유소,서울특별시 마포구 월드컵로 119 (망원동),37.5587410471986,126.907182114043,0.3894763791538875,0.1081787591389734,0.0834881034887432,90.3571256564644,87.4483382054145,158934,186,19079,4.629796713129533
현대오일뱅크㈜직영 남부순환셀프주유소,서울특별시 양천구 남부순환로 553(신월동),37.5197288998681,126.838723252685,0.3588944464595636,0.0842171376482663,0.0838826157876041,95.13630394039116,91.94840480397237,104198,126,19199,4.629796713129533
㈜소모에너지앤 성내주유소,서울특별시 강동구 올림픽로 578,37.5332604712366,127.122008039141,0.2087986221179789,0.12489823939573,0.1775819322552054,94.24891972107982,92.31420530090348,16228,241,12910,4.6298061878572
비자인터내셔날(주) 암사충전소,서울특별시 강동구 올림픽로 791,37.5517674497635,127.127876977193,0.3627913782518054,0.1206165655057686,0.1951630270917445,92.30418878696013,90.41762639198376,159345,273,15069,4.62981194018302
㈜창원씨더블유,서울특별시 광진구 광나루로 460(화양동),37.5451191114666,127.080439646223,0.23447024718355,0.1718848799502119,0.2102368830377937,92.44033480604092,90.3234381451878,49392,67,11561,4.629828488836139
서울석유(주) 장충주유소,서울특별시 중구 장충단로 202 (장충동1가),37.5627543213087,127.007033732048,0.5195335032175954,0.0546245553229335,0.2788850711715324,89.93576818168393,87.48553321725463,58984,58,6682,4.629849994848808
목동주유소,서울특별시 양천구 목동중앙로 125(목동),37.5396005386844,126.874552753564,0.1935960389244049,0.2360874212191024,0.2065140808608582,92.65217516157658,89.60544937131057,67316,126,29641,4.6299179476409
㈜진우에너지 신월점,서울특별시 양천구 신월로 193(신월동),37.5200481885681,126.844071320155,0.347275735764965,0.1233386626004158,0.1727267220972817,95.05198085009476,91.8855473499713,104198,126,17698,4.629927651398095
(주)장위가스,서울특별시 성북구 화랑로 291,37.6132709443231,127.060639333116,0.3208885917883564,0.2132022016581649,0.18714002139174,84.72573302721457,82.57219813783279,132385,73,15868,4.629945459829592
현대오일뱅크(주)직영 금천현대셀프주유소,서울특별시 금천구 독산로 147 (시흥동),37.460504435971,126.904447065345,0.320672617622269,0.2127137143228903,0.1546967610210034,101.26013965353664,98.35053047719106,50601,64,19562,4.629945459829592
용마주유소,서울특별시 광진구 용마산로 68(중곡동),37.5597341174273,127.087883799213,0.3347333485733622,0.2107601175574812,0.1702180885612713,90.91212107391006,88.84365987392981,163728,67,21336,4.629945459829592
오천만주유소,서울특별시 중랑구 동일로 547(면목동),37.5790810348626,127.079322001833,0.3197715712388011,0.2079287878977001,0.1549372915495606,88.68676229224532,86.59513437010482,163728,59,14836,4.629945459829592
구도일주유소 두꺼비,서울특별시 성산로 312(연희동),37.5660708443759,126.924941152249,0.3191411628847551,0.484249497954702,0.1187245627312525,89.48580491053004,86.65627465951655,42092,108,37428,4.629945577843756
대성석유㈜동호주유소,서울특별시 강남구 봉은사로113길 51(삼성동),37.5185133147555,127.064676315855,0.2086092099632683,0.3538621142847543,0.2291382180738569,95.22179384185664,93.01116908387849,144674,269,12739,4.629979979093915
SK에너지㈜ 개봉동주유소,서울특별시 구로구 경인로 290(개봉동),37.4976407488702,126.852335201255,0.1495536393677581,0.2888860590293775,0.2201953721341643,97.4568949393412,94.3319685893336,27118,200,34105,4.629984824284249
지에스칼텍스㈜신길주유소,서울특별시 영등포구 신길로 74 (신길동),37.4990627621518,126.908792674047,0.1356392316656132,0.2862405059939291,0.2126456283933262,96.96829678670012,94.07254423736306,27515,177,11212,4.629984824284249
오복주유소,서울특별시 도봉구 방학로 43 (방학동),37.6622801187124,127.047441496273,0.1730714729116541,0.2253369367311854,0.187989500320256,79.19325496418939,77.01479076602007,37487,47,28410,4.629984824284249
공항로충전소,서울특별시 강서구 공항대로 468 공항로충전소,37.5533387242583,126.858631708358,0.1081278755367761,0.2465100722257838,0.2120646191914757,91.2501206861911,88.13139365289838,124750,265,24991,4.629984824284249
중원주유소(현대오일뱅크㈜직영주유소),서울특별시 광진구 동일로 398(중곡동),37.5658624220462,127.077738277087,0.1138594253085111,0.2700909766680615,0.1881765274501292,90.1260450451807,88.01461775191436,163728,65,38677,4.629984824284249
현대오일뱅크(주)직영가양주유소,서울특별시 강서구 양천로 391(가양1동 58-2),37.5664417853887,126.845859277681,0.1922269390846299,0.1999004418981144,0.2368205418629969,89.91411483908495,86.73569809703423,56170,265,34359,4.630052509061258
노원주유소,서울특별시 노원구 동일로 1008(공릉동),37.6202556594805,127.07507975998,0.1864100077365979,0.2034021407913565,0.2078812893830259,84.10570584454717,82.0329569692565,78083,84,37184,4.630052509061258
태능가스(주),서울특별시 노원구 화랑로 405 태능가스충전소,37.6170264503253,127.072598126339,0.2515701258237321,0.2842384684704181,0.1215316881226478,84.43420400466127,82.34543769083102,78083,84,29384,4.630054510019411
한이에너지㈜ 쌍문주유소,서울특별시 도봉구 도봉로 547 (쌍문동),37.6540051043115,127.037537600995,0.2631866890291954,0.2457198827734899,0.1727776158163403,80.0228241925913,77.7835003308034,46744,47,18461,4.630054510019411
우림주유소,서울특별시 중랑구 용마산로 487(망우동),37.5946340255077,127.09936381383,0.254183062676546,0.2179986328220467,0.1628998305726037,87.21368947628636,85.2370390544671,33744,59,35905,4.630054510019411
㈜성림에너지 남성주유소,서울특별시 동작구 동작대로 135(사당동),37.4887034791074,126.981970010334,0.2290602113848121,0.1656782956099905,0.1729233586351517,98.0653441355896,95.47663629193973,95736,128,28786,4.630061025871584
씨앤에스유통(주) 장충드림주유소,서울특별시 중구 동호로 296 (장충동2가),37.560846711085,127.003414912986,0.2281938529772076,0.1639990773077437,0.2289210482755852,90.13144485122616,87.66335676393246,58984,58,6682,4.630061025871584
현대오일뱅크㈜직영 장호셀프주유소,서울특별시 광진구 자양로 37(자양동),37.5313201772554,127.085854828263,0.0551482197846631,0.099750164034387,0.2436800805356755,94.01842287121912,91.91471793164683,102555,67,22709,4.630062018123487
㈜서울에너지 시민주유소,서울특별시 강북구 인수봉로 185,37.6361915368149,127.012766274186,0.3310847257950494,0.3175518306246487,0.2343639053167261,81.82682144105279,79.44377240015099,46744,41,29916,4.630163547943342
현대오일뱅크(주)직영 장삼주유소,"서울특별시 성북구 한천로 612, 화랑로 293",37.6136383135999,127.060216713088,0.3336597261070461,0.2520653901563189,0.1446956029129035,84.68112041548602,82.52575821926136,132385,73,15868,4.630163547943342
현대오일뱅크㈜직영사당셀프주유소,서울특별시 동작구 동작대로 73(사당동),37.4831195026339,126.98153085422,0.3194646447988123,0.2377955874621787,0.1666853518665781,98.68396284702337,96.09195208470534,95736,128,28786,4.630163547943342
대성산업(주)터미널주유소,서울특별시 서초구 신반포로 222 (반포동),37.5068860321425,127.00872532633,0.3482378862948296,0.2196131527015436,0.2126181745815729,96.13613336176913,93.66926136711471,23053,236,22773,4.630163547943342
(주)지애스이앤알서울주유소,서울특별시 양천구 신정로 236(신정동),37.5105676390045,126.847718788496,0.3285191459534626,0.2760535633733802,0.1268967476882323,96.0670259347678,92.91898277028376,104198,126,50587,4.630163547943342
현대오일뱅크㈜직영 영신주유소,서울특별시 도봉구 방학로 151 (방학동),37.6624183146713,127.035427675612,0.2901575497888003,0.169243401386987,0.0690484767745905,79.07605306817753,76.83229090756589,46744,47,19354,4.630224756118539
㈜이엠석유 배꽃나라주유소,서울특별시 노원구 화랑로 466(공릉동),37.618596156319,127.079175483364,0.4011813070385818,0.1380897997939345,0.2502542188680541,84.33445567342095,82.28111993765658,78083,84,37184,4.630230397733191
대양주유소,서울특별시 중랑구 봉우재로 105(상봉동),37.592617388835,127.084739909459,0.309973331918123,0.136997065739817,0.218559664902882,87.2572165763498,85.2054775456418,163728,59,20612,4.630252815665776
매일주유소,서울특별시 동작구 상도로 139(상도동),37.5028629715876,126.93518145624,0.3327168804107023,0.1353370407070715,0.2386587219694373,96.47849304828084,93.69318637554572,69391,128,37056,4.630252815665776
북서울고속주유소,서울특별시 강북구 삼양로 410,37.6402370196363,127.017250207497,0.2729934770104699,0.2494425854939107,0.2062318062605019,81.40446652421045,79.04735242363398,46744,41,29916,4.630294912474314
현대오일뱅크(주)직영서초제일주유소,서울특별시 서초구 사임당로 116 (서초동),37.4905850808047,127.022588286106,0.2891537678943301,0.239883277755776,0.2089420619367609,98.01019215838404,95.59664795242796,229603,236,20622,4.630294912474314
㈜한미석유 제2한강주유소,서울특별시 영등포구 선유로 260 (양평동4가),37.5355248902398,126.897964946369,0.3289709300629894,0.2025404507253427,0.1548547178934194,92.97088975280413,90.02497552639599,128203,177,22583,4.6302981093637
자양주유소,서울특별시 광진구 아차산로 298(자양동),37.5381518083915,127.075893035565,0.1548783756903759,0.1979639644209657,0.2302208478415869,93.16149571357212,91.01750026670368,49392,67,27082,4.630337473818357
현대오일뱅크(주)직영 신구로주유소,서울특별시 구로구 가마산로 293(구로동),37.4975533832572,126.892394002855,0.1552119274723514,0.190840282161498,0.1706675246154086,97.20579049032064,94.24264405406096,57000,200,31740,4.630337473818357
에덴주유소,서울특별시 강북구 월계로 195,37.621613569637,127.045589558796,0.1435666348554402,0.1908329829047048,0.1719361635677458,83.66849610853691,81.4449813466564,132385,41,16449,4.630337473818357
신화곡주유소,서울특별시 강서구 국회대로 71(화곡1동 931-11),37.5273198541745,126.8428791732,0.1725743037317385,0.1944169495279347,0.2290088821617917,94.25994514518275,91.08571405642265,22296,265,52647,4.630337473818357
오동나무주유소,서울특별시 동대문구 한천로 81(답십리동),37.5689447519836,127.063376287307,0.2896498985154725,0.1487388770710108,0.0773133703994954,89.64279230068483,87.46490970570804,47232,65,28055,4.630353629467349
태봉주유소,서울특별시 서초구 태봉로 117 (우면동),37.4682517426698,127.028145932927,0.3659213884051558,0.3009651885510547,0.2677480308760495,100.51477478858466,98.1145718330613,231970,236,42683,4.630373602545909
남선석유㈜ 구도일주유소 불암,서울특별시 노원구 한글비석로 268(중계동),37.6513325205984,127.077325056134,0.2954925911075083,0.2038940129672399,0.1364534023460436,80.71104612423869,78.68337792477223,37487,84,26580,4.630410086347686
㈜남경주유소,서울특별시 용산구 녹사평대로 11길 24,37.5222568335822,126.993181838109,0.0806614508471442,0.1480535483147523,0.1283333544441247,94.37302013233536,91.84319736622804,92505,93,13458,4.63042418941771
버드나룻길주유소,서울특별시 영등포구 버드나루로 111 (당산동),37.5279744482943,126.907873245851,0.1084291085119709,0.0901014840605077,0.2676879344177141,93.76575191575289,90.86331595655382,54617,177,30461,4.630484344750065
현대오일뱅크㈜직영동작주유소,서울특별시 동작구 상도로 403(상도동),37.4934718918359,126.956435112111,0.2587339782120521,0.1171143117152775,0.0883192783073262,97.50622921904616,94.81005863608472,62852,128,46166,4.630553941341923
행운주유소,서울특별시 관악구 남부순환로 1883 (행운동 1679-30),37.4790967425593,126.959169176582,0.2670687038524111,0.1101881598726693,0.0889850773090916,99.10241311217462,96.4156935377148,100361,78,29636,4.630553941341923
㈜안국에너지 삼원주유소,서울특별시 동대문구 망우로 90(휘경동),37.5901831438414,127.063235322657,0.3673280379653734,0.1076233392592575,0.0907873914867387,87.29792694927532,85.13714709007445,132385,65,21366,4.630553941341923
SK에너지㈜양평주유소,서울특별시 영등포구 선유로 195 (양평동3가),37.5310482968462,126.893506681257,0.213201206606228,0.0828698927091902,0.0888410427785225,93.48863681207808,90.52439614985948,60425,126,40737,4.630560833369213
동일주유소,서울특별시 성북구 보문로 85,37.5829579453996,127.020374169754,0.2951884337722745,0.2947247565012372,0.1414256269517919,87.76607516128526,85.38999132073542,38959,73,16712,4.630628174461435
주식회사 타이거통상 다산주유소,서울특별시 중구 다산로 233 (무학동),37.5639682094791,127.0157064028,0.2845988818998257,0.2391625998281544,0.1639948300603989,89.84372132871596,87.43497971729971,46649,58,9087,4.630628174461435
신당동주유소,서울특별시 중구 다산로 242 (신당동),37.5646079893536,127.016496017941,0.2967554592556485,0.3379992801197047,0.145607497516719,89.7770330262492,87.3723571349723,46649,58,9087,4.630628174461435
방이주유소,서울특별시 송파구 위례성대로12길 38(방이동),37.510697303932,127.120691625554,0.1315296318210522,0.1621597892391876,0.1637280031526351,96.70592628349333,94.7416686206972,105516,241,26354,4.630629858227815
SK에너지(주)신평주유소,서울특별시 양천구 목동남로 62(신정동),37.5093947016961,126.866239301006,0.2050870355711264,0.1117511455356868,0.1267996674694727,96.05163058062548,92.97891494173037,27118,126,24152,4.630647643314313
성산주유소,서울특별시 마포구 월드컵북로 170 (성산동),37.567465744446,126.909844646131,0.2068914492599848,0.0649128024306349,0.1338351552841223,89.37926385445192,86.48143715238209,39064,186,39500,4.630647643314313
대성석유㈜관문주유소,서울특별시 강서구 공항대로 314(우장산동 648-3),37.5578424333244,126.842395220012,0.2730020883528281,0.27620712358599,0.1049850872804139,90.89571837722178,87.70639817178319,56170,265,30025,4.6306572901284895
동일석유(주)동주충전소,서울특별시 동작구 상도로 74 가동,37.4993638236521,126.928763307943,0.3701201218711184,0.2215312087807124,0.2490365097049469,96.87825428529696,94.06582962267191,69391,128,37056,4.630702886522945
등촌주유소,서울특별시 강서구 등촌로 189(등촌2동 511-5),37.5468598193199,126.862514592122,0.0622274475838625,0.1168993486650956,0.2209468050482494,91.93561360882634,88.83563804699695,124750,265,19855,4.63070463494945
신성주유소,서울특별시 노원구 월계로 328(월계동),37.628768841181,127.05737392402,0.30809305749224,0.1887958034630849,0.1186770984666931,82.98445250544997,80.82811173968369,147543,84,26066,4.6307627358817935
우리주유소,서울특별시 성북구 화랑로 292,37.6126157123372,127.061400134261,0.3218076674859205,0.1678981516062758,0.2569507994008982,84.8054023834253,82.65515832360227,132385,73,15868,4.630790589141872
㈜타이거오일 신정주유소,서울특별시 양천구 중앙로 226(신정동),37.5167468205193,126.854738127061,0.090038393927022,0.1247281014119709,0.2032790361798679,95.32582320702318,92.20392259169633,67316,126,50587,4.630851647107796
지에스칼텍스(주) 일신주유소,서울특별시 금천구 시흥대로 118 (시흥동),37.4444979001053,126.904287632312,0.0642537709210069,0.1582094448087241,0.206652738648278,103.03562124045489,100.12700871256344,28178,64,34054,4.6308825120707695
삼미상사㈜신월IC셀프주유소,서울특별시 양천구 중앙로 331(신월동),37.5254885041362,126.849753276346,0.0644478030824521,0.1752822937861458,0.1779203288686233,94.40136280073732,91.25593281197328,22296,265,52647,4.6308825120707695
(주)대청에너지,서울특별시 영등포구 가마산로 328 (대림동),37.4985849503891,126.895817488746,0.0791261101741344,0.106516856808956,0.1311661722638658,97.07505976914145,94.12579498941172,57000,177,25205,4.63091402133822
신성주유소,서울특별시 구로구 구로동로 187(구로동),37.4953107996815,126.882396091763,0.4384143709433188,0.1593070139537583,0.055493973708937,97.50737547525364,94.50389520762636,57000,200,30093,4.630949260195413
㈜잠실에너지 명품주유소,서울특별시 강남구 도곡로 249(역삼동),37.4941658353154,127.045509037091,0.2078285026586294,0.1007365867393331,0.1893463030395202,97.75802400183338,95.4461552018787,64381,269,37269,4.630972807581994
지에스칼텍스(주) 종암주유소,서울특별시 성북구 종암로 145,37.6027851035284,127.03204755082,0.4068586546068673,0.2002402315823938,0.2602291505531733,85.64597591260036,83.33976112312438,13720,73,21728,4.630997161388489
SK에너지㈜경인주유소,서울특별시 양천구 국회대로 170(신정동),37.5281136827651,126.854009012994,0.3508834856474948,0.142012351081777,0.2124433698030773,94.07557232345675,90.94663844056596,22296,265,17785,4.630998233165834
구도일주유소 파크빌,서울특별시 도봉구 해등로3길 86 (창동),37.6468441893808,127.039445115121,0.2578463476818096,0.1448693781817686,0.2245666996951833,80.8296739926728,78.59464249198457,46744,47,24502,4.630998233165834
현대오일뱅크(주)직영 아리랑주유소,서울특별시 성북구 아리랑로 96,37.6005363027457,127.014211710411,0.2642547040450919,0.1407877800630266,0.1399657999785407,85.78450695687042,83.38812183807575,13720,73,22911,4.630998233165834
SK에너지㈜ 신봉천주유소,서울특별시 관악구 남부순환로 1880 (낙성대동 1663-11),37.4787976983741,126.958396590223,0.2612342126599205,0.1440971209422736,0.1541693948075803,99.1353359855322,96.44535422367288,100361,78,29636,4.630998233165834
세화주유소,서울특별시 중구 왕십리로 403 (신당동),37.5646782009732,127.025483219811,0.1980104542082663,0.0512053133566909,0.1414203251060131,89.82074617040539,87.45869685204515,46649,58,13459,4.631009878558953
근린공원주유소,서울특별시 구로구 고척로 199(고척동),37.5051039732935,126.855483040622,0.1957473174605246,0.0799423208107669,0.1445096432347116,96.60679003322942,93.49190282170991,27118,200,26557,4.631009878558953
㈜장수주유소,서울특별시 광진구 동일로 266(군자동),37.5549838384561,127.071529641931,0.1992829563128674,0.1126786543165939,0.1258325043904441,91.26171788559796,89.11124659482427,47232,69,12551,4.631009878558953
GS칼텍스㈜ 방학동주유소,서울특별시 도봉구 방학로 186 (방학동),37.6624797249011,127.031423782992,0.1992359199081816,0.0597009327692415,0.1381166088902891,79.0383853014948,76.77290902564869,46744,47,26500,4.631009878558953
현대오일뱅크㈜직영 도봉현대셀프주유소,서울특별시 도봉구 도봉로 941 (도봉동),37.6883740291887,127.045327229383,0.369886922020477,0.2044267665625755,0.2318865002560763,76.29332725102277,74.12797410235831,47600,47,20622,4.6310126487104
SK에너지 직영 퇴계로주유소,서울특별시 중구 퇴계로 228 (필동2가),37.5617086193411,126.997140662184,0.3627401384654988,0.4301616940789026,0.1518399527905547,90.01117920098544,87.51406004892365,21837,58,6682,4.63102853237395
말죽거리주유소,서울특별시 서초구 남부순환로 2650 (양재동),37.4852151024163,127.040657880963,0.3632249511183825,0.2186042916961217,0.1537648565307086,98.7144709300187,96.3764070711287,64381,269,21274,4.63102853237395
월계주유소,서울특별시 노원구 월계로 252(월계동),37.6244413704143,127.050757889236,0.3568339580275786,0.2181042306806367,0.1799444708486366,83.40093812171654,81.2064379218846,147543,84,26066,4.63102853237395
현대주유소,서울특별시 양천구 남부순환로 372(신월동),37.5339097605129,126.829178494291,0.1421681768687601,0.2702711817389207,0.1162717056188937,93.6662748197817,90.43338334718732,28561,126,14934,4.631038813872203
현대오일뱅크㈜ 직영 효진주유소,서울특별시 성동구 동일로 129(성수동2가 19-1),37.5441143795743,127.064645129354,0.1328898904954143,0.334280930041487,0.1146056457573199,92.39515403051053,90.20357215255144,49392,69,10520,4.631038813872203
수유동주유소,서울특별시 강북구 도봉로 395,37.6422269311156,127.029534049186,0.4731894590558921,0.1025852431522731,0.2204451546474433,81.26463907633574,78.97348307190093,46744,41,23778,4.631045367523699
서광주유소,서울특별시 강남구  역삼로 142(역삼동),37.4943841027679,127.035078677738,0.2536228885926991,0.1476142179386896,0.1102962354911611,97.66297506217524,95.30563788369916,63030,269,35556,4.631055682000151
문성골주유소,서울특별시 관악구 문성로 97 (미성동 1477-5),37.4778696458556,126.914362940913,0.1819540401127755,0.1707704886220609,0.1361148366352254,99.29996977023131,96.42871115772827,27515,78,30662,4.6311133786920715
구도일주유소 코알라,서울특별시 강동구 올림픽로 556,37.5313314897305,127.121249029645,0.1106189178985582,0.1819044718400561,0.1509657359293507,94.45003344820908,92.5097427920993,73882,241,12910,4.6311133786920715
태양주유소,서울특별시 광진구 동일로 345(중곡동),37.5618603966711,127.074779022864,0.5164350369717882,0.2758034530385229,0.2919580533317226,90.53628842722,88.40714159703886,47232,65,38677,4.631158786301088
SK에너지㈜ 기린주유소,서울특별시 영등포구 선유로 270 (양평동4가),37.5363321621978,126.898774299929,0.3546690201635784,0.2865157268519068,0.2223860429091838,92.87765046728776,89.93509108544795,128203,177,22583,4.631196969062378
㈜자연에너지 대창주유소,서울특별시 중랑구 동일로 636(면목동),37.5872153637863,127.080281126703,0.329504443045966,0.1815293638649811,0.2615460798114579,87.80146354628721,85.72228379745016,163728,59,24206,4.631201685498238
국제가스공업(주),서울특별시 강북구 덕릉로24길 6,37.6343359745572,127.021859297587,0.3694166129358607,0.2879338140223497,0.1687881276662585,82.08618232433238,79.74926963364788,46744,41,23778,4.63123073682415
SK에너지㈜ 매일주유소,서울특별시 강북구 삼양로 217,37.6227653570793,127.019086440546,0.2659028345440982,0.0979875600407364,0.0938607660885442,83.35016185654644,80.99146164805892,168540,41,23090,4.631231108056698
양정주유소,서울특별시 양천구 국회대로 158(신정동),37.5280498776111,126.852547021219,0.270280616259192,0.162341192791987,0.204750233711602,94.0947551894792,90.95982743480214,22296,265,24415,4.631268188415928
스카이주유소,서울특별시 강서구 개화동로 457(방화2동 523-22),37.5715221982948,126.804525932214,0.2689725597331977,0.1718853987933443,0.1730012049823354,89.81349025833468,86.45869711186744,60973,265,23371,4.631268188415928
현대오일뱅크 JJ네트웍스 JJ주유소,서울특별시 강남구 언주로 716(논현동),37.5176693667198,127.035822681301,0.3081259089698398,0.1287075438254175,0.0858501203096485,95.09044622975264,92.74922469463012,83560,269,20814,4.631274204128687
재정주유소 ,서울특별시 동대문구 전농로 121(전농동),37.5757753233693,127.057492519248,0.3022333145496397,0.155349721430128,0.2425010650366787,88.83478724548146,86.63395919145279,163728,65,29220,4.631297756385749
서울석유(주) 풀페이주유소 ,서울특별시 구로구 경인로 41(온수동),37.4909859722988,126.826705964775,0.0940508381658366,0.0850862973191661,0.1839750962233924,98.42378661998109,95.2009650042942,36665,200,23332,4.631341479028307
기린에너지,서울특별시 영등포구 선유로52길 5 기린충전소,37.536236791966,126.899143618611,0.3777012667957811,0.3179207438773178,0.205582103668285,92.8865197211077,89.94556321247913,128203,177,22583,4.6313417352234785
망우충전소,서울특별시 중랑구 망우로 449,37.6006676333535,127.101862137537,0.2765470340931179,0.1463654511263752,0.1677870208847623,86.58376130840787,84.62643309016916,145433,59,38205,4.63134222599285
㈜지에스이앤알 모드니주유소,서울특별시 영등포구 경인로 789 (문래동3가),37.5146713027948,126.900727819773,0.2931463033945265,0.1483568850835916,0.2289482529452137,95.26987854060974,92.33870915909304,60425,177,32540,4.63134222599285
㈜새서울석유 대원주유소,서울특별시 구로구 개봉로 7(개봉동),37.4862064699178,126.856161567942,0.401742587765398,0.1464692162727669,0.1181973309081625,98.6907031616342,95.58473219796056,25241,200,20251,4.63134222599285
오금가스충전소,서울특별시 송파구 마천로 103 오금가스충전소,37.506239602722,127.131641702367,0.2732175750107365,0.1488684432612491,0.2336851850680849,97.34453138937452,95.4249206187957,105516,241,38037,4.63134222599285
GS칼텍스㈜ 도봉주유소,서울특별시 도봉구 도봉로 895 (도봉동),37.6843693792253,127.045522281038,0.3933328184966153,0.2154634146480263,0.1785432521101153,76.7371841962742,74.56902318171957,47600,47,20622,4.631343381947579
코끼리주유소,서울특별시 은평구 서오릉로41 (녹번동),37.6043960943468,126.9242140035,0.1368925315553334,0.0899722523474316,0.1196130464485783,85.23594055704818,82.40224933807539,51143,134,26862,4.631462869203994
에쓰-오일(주)오토테크주유소,서울특별시 서초구 효령로 356 (서초동),37.4864968459389,127.023063981282,0.1552586087398633,0.1205548207764107,0.1069939051848715,98.46565236238403,96.05226428059696,229603,236,20622,4.631462869203994
(주)중앙에너비스 삼중가스지점,서울특별시 금천구 시흥대로 316,37.4618927116559,126.898499468027,0.4313441770188818,0.2336108569363852,0.2520914233674232,101.1302513373667,98.19693781649724,50601,64,47573,4.631478426387143
남서울고속주유소,서울특별시 영등포구 가마산로 367 (대림동),37.5016177485726,126.898733536976,0.2430046669265574,0.1847385844402147,0.1932934998090689,96.72563140036986,93.78794163372504,57000,177,25205,4.631560044390548
현대오일뱅크(주)직영 구로셀프주유소,서울특별시 구로구 시흥대로 531(구로동),37.480949072088,126.899231996072,0.4017037306985785,0.3447125042368158,0.138974982814542,99.01459726509684,96.0817379281918,27515,200,25055,4.631561470061328
현대오일뱅크㈜ 직영갈월동주유소,서울특별시 용산구 한강대로 322,37.5470289447515,126.972228457829,0.3940723478681688,0.3262177865943768,0.1639910202734156,91.57537000039314,88.95857020425659,10413,93,19833,4.631561470061328
성북역주유소,서울특별시 노원구 광운로 95(월계동),37.6260132376987,127.059963771248,0.3925211213787981,0.4345329456905126,0.1144897898523328,83.313515902674,81.16811016231038,147543,84,21580,4.6316433490381
유한책임회사동하석유 태릉솔밭지점,서울특별시 노원구 노원로 49(공릉동),37.6259562863554,127.085549633788,0.3196998230099621,0.1592946624559218,0.1608035723986597,83.59981590351704,81.58739308558317,78083,84,42538,4.631647723420114
대양가스충전소,서울특별시 강서구 양천로 551 대양가스충전소,37.558446123086,126.860837854796,0.330133972909898,0.1550889641164545,0.1930893686237742,90.66788664183392,87.55674881951904,124750,265,14678,4.631647723420114
오일프러스 셀프주유소,서울특별시 강남구 남부순환로 2651 (도곡동),37.4858569015938,127.039563953841,0.2504457189606929,0.1858087566202129,0.2387522584375251,98.63609745493216,96.293652599995,63030,269,21274,4.631679284772293
마곡대성주유소,서울특별시 강서로 457(마곡동 784-1),37.5662430987764,126.840421267348,0.4094370206208276,0.2458048643485504,0.2266439786008696,89.98794736702996,86.78645133023954,56170,265,34359,4.631719734246372
대득에너지(금천셀프주유소),서울특별시 금천구 시흥대로 81 (시흥동),37.4413113941798,126.903098285437,0.4194801233696987,0.2809265935318019,0.219153945313165,103.3934677611159,100.48055759361498,105101,64,10701,4.631719734246372
주식회사 에스에스 오토,서울특별시 마포구 서강로 76 (창전동),37.5498342666849,126.932591311368,0.3240939319581574,0.1102480346827531,0.0953774677480121,91.27058188042332,88.47542834390615,85942,186,25576,4.631757062172263
청룡주유소,서울특별시 강서구 양천로 576(등촌1동 631-7),37.5567244681338,126.862735949013,0.3425879933207018,0.155699302067191,0.0989157061818633,90.84326026042842,87.74086200564736,124750,265,14678,4.63176650101359
현대오일뱅크㈜직영 명일셀프주유소,서울특별시 강동구 고덕로 168,37.5544786253203,127.144011308896,0.1257668336615078,0.0663373881230603,0.2530125628595879,92.25294474281904,90.39851112686728,205654,273,17481,4.631770456441739
구도일주유소 동천,서울특별시 중랑구 동일로 654(면목동),37.5891088122,127.080262213877,0.1359620493303831,0.0715189646744803,0.2559461947675004,87.5927634596636,85.51531962665932,163728,59,24206,4.631770456441739
화곡역주유소,서울특별시 강서구 강서로 154(화곡본동 1076-14),37.5407680113225,126.8414715329,0.1836871173266447,0.0965936696174602,0.2504515614269061,92.78863103525792,89.60294522582883,73636,265,42883,4.631770456441739
하계삼호주유소,서울특별시 노원구 공릉로 294(하계동),37.6335890073283,127.072325002414,0.0931014254911335,0.1280391951620854,0.1527556470658169,82.6070480687119,80.53362228694223,147543,84,26982,4.6317823545110635
올림픽셀프주유소 (셀프),서울특별시 송파구 위례성대로 188(오금동),37.5097379558053,127.131862743873,0.1046345388301503,0.1279632258182885,0.181338590865657,96.96435258958172,95.049454174533,105516,241,17804,4.6317823545110635
㈜재건에너지재정제2주유소(길음지점),서울특별시 성북구 삼양로 78,37.610327106355,127.02274325737,0.1012400720320753,0.139654991505615,0.1519061618814513,84.74970560906107,82.40175259299473,13720,41,30939,4.6317823545110635
가락로주유소 (셀프),서울특별시 송파구 가락로 47(석촌동),37.4995184526258,127.101735773908,0.1275586566405267,0.158348694814903,0.1875485838813603,97.69781294935969,95.63806681682912,114268,241,31602,4.631813219474037
수도에너지(주),서울특별시 양천구 신정로 146,37.5070068119478,126.838977504559,0.4904360197861426,0.3513480214179162,0.2623541175598413,96.538072339758,93.35649484265792,51994,126,50587,4.63184580907662
현대오일뱅크(주) 직영 독립문주유소,서울특별시 통일로 384(홍제동),37.5841890713335,126.94938946313,0.4866778046053631,0.0782942775481911,0.1930111769468466,87.43864872216112,84.72313561015972,79640,108,13433,4.631876387135391
(주)대흥가스,서울특별시 양천구 남부순환로 411 LPG충전소,37.5312308727915,126.831791045703,0.2570372428694691,0.1724224941212566,0.1401837508564776,93.93496270426088,90.71393393757891,28561,126,20343,4.631950801053426
SK구로주유소,서울특별시 구로구 구일로 94(구로동),37.4937059471138,126.872179789099,0.1277815965504613,0.078197401668321,0.1239893597832644,97.74739213917005,94.70302109547022,28199,200,20936,4.631973142475263
㈜삼표에너지 고덕주유소,서울특별시 강동구 고덕로 39,37.5550602507921,127.129843660096,0.1697605717237056,0.0707388765131104,0.154638837733631,91.97253088533888,90.0991538051898,159345,273,15069,4.631973142475263
정호주유소,서울특별시 성동구 고산자로 307(마장동 573-1),37.5672020506377,127.036537420429,0.1624418573307598,0.1178900534154892,0.1557912531287718,89.6143349019373,87.30645471349935,46649,69,22706,4.631973142475263
복지둔촌충전소,서울특별시 강동구 동남로 563,37.525462240934,127.146480415355,0.4834032978311303,0.1968061392943234,0.2654241093316631,95.46091147406617,93.62455315109784,105516,273,24277,4.631980370496978
(주)풍림에너지,서울특별시 중랑구 동일로 553,37.5796855718927,127.079232188375,0.331041217148584,0.2595428916129222,0.087751838788157,88.61919935094181,86.52769923974975,163728,59,14836,4.6319858743566265
㈜태영 구도일주유소 한인,서울특별시 중랑구 망우로 170(상봉동),37.5923859402544,127.071808414351,0.4447987082191897,0.337257766471981,0.1637392602909041,87.14087269776968,85.02457650002675,132385,59,24926,4.632006276688347
풍한주유소 ,서울특별시 동대문구 안암로 168(제기동),37.5892107111281,127.035992810349,0.4550160114273359,0.2768781853107788,0.1729130842414386,87.17575394900628,84.87984939054374,13720,73,40111,4.632006276688347
현대오일뱅크㈜직영목동셀프주유소(구) ,서울특별시 양천구 공항대로 648(목동),37.5467672087448,126.87698319379,0.4340213380087097,0.2516021086124993,0.1939330582784102,91.84297876083036,88.80468032221569,81224,265,41628,4.632006276688347
면목self주유소,서울특별시 중랑구 동일로 627(면목동),37.5862835429022,127.07950354997,0.42243856398725,0.2478960448471028,0.2247717633234912,87.89549885192504,85.81158407377968,163728,59,24206,4.632006276688347
㈜에스에스모터스 논현주유소 지점,서울특별시 강남구 논현로 747 (논현동),37.5185333217982,127.028244442649,0.4428609757108956,0.4037431313499867,0.2374579993194328,94.94694116132642,92.57219052792318,83560,269,15876,4.632006276688347
구도일주유소 도봉,서울특별시 도봉구 도봉로 706 (방학동),37.6674517132657,127.043562669797,0.4319833254170657,0.2256539113142713,0.1082709361856552,78.58763921668987,76.39269673439466,87685,47,20622,4.632035392355402
㈜소모에너지엔테크놀러지 쎈트럴주유소 ,서울특별시 강남구 삼성로 335(대치동),37.5014264471377,127.059074163314,0.4596173252342244,0.2411369371284904,0.1381685342909197,97.06071918800016,94.81311652786334,20957,269,19491,4.6320925046488375
㈜신태성주유소,서울특별시 용산구 원효로 147,37.5347149768812,126.959447976925,0.4327247824829977,0.1910233028047188,0.1665431479108738,92.92967696898867,90.252846541552,55718,93,11664,4.632140838108706
대동석유 압구정주유소,서울특별시 강남구 언주로 842(신사동),37.5253467761709,127.033802833889,0.2992412483681803,0.1818703424691764,0.2039196012361627,94.22744133850316,91.881472304441,130255,269,25902,4.632190184307451
연일가스산업(주),서울특별시 서대문구 수색로 123 연일가스주유소,37.5736343770326,126.906334323592,0.277125940265259,0.1783004408753996,0.1910680187524599,88.70940554049214,85.79504743143583,39064,108,17804,4.632190184307451
㈜강서오일,서울특별시 영등포구 도신로 151 (도림동),37.5100148716917,126.908251942382,0.2914501660334723,0.1753533656183749,0.1729868788260553,95.75579162106348,92.85675158277232,97698,177,22714,4.632190184307451
현대오일뱅크㈜직영 신오류주유소 ,서울특별시 구로구 경인로 161(오류동),37.4943918613082,126.839456803066,0.4157967487059021,0.1646108754907847,0.078031046898657,97.92626514679952,94.75167230212516,27118,200,23126,4.6322153131976425
㈜지에스이앤알 보라주유소,서울특별시 영등포구 영등포로 399 (신길동),37.5135821203562,126.922724761096,0.4645842332160577,0.1939526713376179,0.2385274884314895,95.31463892756224,92.47653517992904,97698,177,20483,4.632227066069196
화곡현대주유소,서울특별시 강서구 강서로 151(화곡1동 402-1),37.5402424056989,126.841163971808,0.1516080620354467,0.0407504555187122,0.2415628323938201,92.84952834815115,89.66279934406255,73636,265,21603,4.6322983067429435
㈜한미석유 구로그린주유소,서울특별시 구로구 구로중앙로 76(구로동),37.4964219041881,126.888321429827,0.1942712868579877,0.0752204197974126,0.2365357152051318,97.35186677355652,94.37227290943864,57000,200,31740,4.6322983067429435
강서열린점,서울특별시 강서구 등촌로 213(등촌2동 510-13),37.5487350773536,126.862988809415,0.1804829320869201,0.1100475399536365,0.2260498398585019,91.72462179636706,88.62602518353422,124750,265,19855,4.6322983067429435
신방주유소,서울특별시 성북구 안암로 111,37.585570267124,127.03185811318,0.3621400358530301,0.1735912097676104,0.2685444281470476,87.54945203505623,85.23086934587647,13720,73,17118,4.632338186209979
현대오일뱅크㈜직영 신목동셀프주유소,서울특별시 양천구 목동동로10길 13(신정동),37.5194893296515,126.871071371587,0.1665549130214014,0.1389889407420517,0.1502916866577204,94.9011990379532,91.84543431206184,67316,126,24152,4.63241401795802
현대오일뱅크㈜직영 대일셀프주유소,서울특별시 영등포구 영등포로 168 (당산동1가),37.5204746288886,126.900045594323,0.3693716138806704,0.3201160054218775,0.0822258271168406,94.62957357999686,91.69473641193856,60425,177,20740,4.632445636782314
도림주유소,서울특별시 영등포구 도림로 343 (도림동),37.5077698456731,126.90025684474,0.3689858833754648,0.1872275332040887,0.204661869997394,96.03697336207628,93.1047607864398,57000,177,19600,4.632460192165743
한경석유㈜경덕주유소,서울특별시 영등포구 여의대방로23길 2 (신길동),37.4983819172602,126.919783311181,0.3683758389157494,0.1861145222527491,0.1250248526565239,97.00872527339448,94.15873404678824,27515,177,19593,4.632460192165743
경진주유소,서울특별시 성동구 고산자로 348(마장동 522-6),37.570523648373,127.038003801303,0.3693764587935508,0.1631605758272287,0.2086813607445915,89.25738406163474,86.9586964104586,46649,65,36137,4.632714912300922
옥수주유소,서울특별시 성동구 독서당로 168(옥수동 449-5),37.5408496346983,127.011382906693,0.1682253647629469,0.1263695001482895,0.1914164666514246,92.38376890525824,89.94362188394489,18881,69,25843,4.6327391822257
성원이앤에스㈜영등포지점,서울특별시 영등포구 국회대로 665 (영등포동7가),37.5254941545528,126.908083772865,0.1712305372616241,0.1289180568583113,0.1851196720978758,94.03997392256196,91.13869158266424,54617,177,30461,4.6327391822257
현대오일뱅크(주)직영 북악셀프주유소,서울특별시 성북구 정릉로 218,37.6054307579856,127.008551321932,0.1979372437856569,0.0930818965472517,0.0902540368951498,85.21306775852837,82.79121595378277,168540,73,16567,4.632781613280416
다회주유소,서울특별시 은평구 증산로441 (신사동),37.5956135535263,126.914396679791,0.3779065642926098,0.1557010463981789,0.229959221021554,86.24104299716925,83.36149177025099,39064,134,26984,4.632825910700251
(주)남양가스,서울특별시 양천구 남부순환로 538 남양가스충전소,37.5207011056356,126.83742671953,0.3676847373030236,0.1548160489092961,0.0988872064093092,95.04126773699122,91.84773079530376,103550,126,19199,4.632833689894398
(주)중앙에너비스 한남지점,서울특별시 용산구 한남대로 21길 4,37.534722862601,127.006107972676,0.4993364171962431,0.0921245311297371,0.2552053421329024,93.03896723366914,90.57203714801722,18881,93,22054,4.632850913935445
㈜미래아스팔트 덕릉로주유소,서울특별시 강북구 덕릉로 158,37.635016251642,127.031309683046,0.303660993323197,0.1560058032434937,0.08063916413909,82.07505042711134,79.78789013947083,46744,41,18578,4.633006118873598
서서울고속주유소,서울특별시 구로구 경인로 150(오류동),37.4932767157175,126.838552971975,0.3298437852855835,0.1412520681889762,0.0925875456528124,98.05759736541872,94.87990664268396,36665,200,23126,4.633176595271118
우리주유소,서울특별시 송파구 동남로 153(가락동),37.4924714993498,127.127383321556,0.4038178976305085,0.1642898298725559,0.1207145769533781,98.7951028891278,96.84234992541704,85016,241,31670,4.633203909723144
타이거주유소,서울특별시 은평구 수색로188 (증산동),37.5785521168108,126.902034060396,0.4874670234325788,0.1626328800698503,0.2570456745416656,88.18309611669973,85.24858790803373,39064,134,13210,4.633329984553392
㈜ 서울에너지,서울특별시 성동구 천호대로 324(용답동 5-4),37.5642339425388,127.055593318567,0.4212415660796432,0.1565598263863571,0.1205060741231666,90.09259904930732,87.8736770970696,47232,65,28530,4.63349045216512
염창동주유소,서울특별시 강서구 양천로 720(염창동 263-8),37.5492177273409,126.875677103073,0.4340553442046376,0.1545947272459396,0.1103654145444613,91.5803346447112,88.53577227788932,81224,265,41628,4.63349045216512
지에스칼텍스(주) 녹번주유소,서울특별시 은평구 통일로600 (녹번동),37.6006171747248,126.936280685005,0.2728134832976053,0.159728501024824,0.0886595395122465,85.62894713249791,82.85274575630112,79640,134,36884,4.633613545328718
SK에너지㈜ 성수주유소,서울특별시 성동구 뚝섬로 352(성수동1가 33-96),37.5400047737799,127.049900172954,0.1447485302281138,0.2099155603849631,0.0894303770384597,92.72247747716476,90.45936219438072,130255,69,16407,4.633617065657342
(주)청학에너지,서울특별시 강북구 한천로 833,37.6282834559839,127.044006981007,0.3078851128940154,0.1899970315842714,0.095061604575458,82.9182930602437,80.6920248061313,46744,84,26066,4.63364895060421
강평주유소,서울특별시 광진구 아차산로 616(광장동),37.5476463277107,127.107295591504,0.4772118411163523,0.2643598156564851,0.1277178158227863,92.4752708182262,90.48696081555646,32256,67,34362,4.633668893090303
(주)명연에너지 수색훼미리주유소,서울특별시 은평구 수색로236 (수색동),37.5811692862968,126.897845401184,0.4728628988517285,0.2192798513274865,0.1403978068248041,87.91302744663068,84.9590914785386,65387,134,13210,4.633668893090303
동서울주유소,서울특별시 광진구 강변역로 10(구의동),37.5375760183292,127.091243691147,0.1065985736222215,0.0735313550706771,0.0865139309763357,93.38917293817089,91.31597873283276,79289,67,24049,4.633742858941285
삼미상사㈜ 장안킹셀프주유소 ,서울특별시 동대문구 한천로 100(장안동),37.5701668831791,127.064994661697,0.1707038588730882,0.1194082507662596,0.0877245258326639,89.52324913675946,87.35416998101371,163728,65,28055,4.633864249116973
삼융주유소,서울특별시 은평구 수색로 299 (수색동),37.5839915532482,126.891088859421,0.4541613861439117,0.1785173219329697,0.23565145118233,87.63593108739975,84.6508140382494,65387,134,13210,4.633901548521485
아이콘주유소,서울특별시 성동구 고산자로 273(도선동 2-4),37.5641283119055,127.035920071533,0.4182333542125161,0.2012567793880352,0.0917546209347375,89.9500522741635,87.63725481773785,46649,69,26903,4.634191719325788
선익상사(주) 동자동주유소,서울특별시 용산구 한강대로 104길 6,37.5502005044121,126.972417738531,0.4583084756607119,0.1732441353048926,0.1264306618992149,91.2237043982094,88.60854765576848,58445,93,7552,4.634259292763107
SK에너지(주)신길동주유소,서울특별시 영등포구 영등포로 348 (신길동),37.5152502056697,126.916966967146,0.1432191117941858,0.1316255866107991,0.0879555730472998,95.14571639178132,92.2830746755753,97698,177,30461,4.63430512459973
JHC에너지,서울특별시 구로구 시흥대로 539(구로동),37.4815312323457,126.899783520855,0.4825892583477617,0.2801956106872929,0.1804970087131168,98.94769882895436,96.01699274022488,27515,200,25055,4.634499912701996
KLP제2주유소,서울특별시 성동구 동일로 249(송정동 83-3),37.5540124113316,127.070433103392,0.0817763240006565,0.1051719687280897,0.0956963586974977,91.35804595527352,89.20157686864289,47232,69,12551,4.634551227617776
지에스칼텍스㈜ 은마주유소,서울특별시 강남구 영동대로 235(대치동),37.500048799955,127.067184321975,0.5182296151242358,0.0211653325422398,0.1677387123619394,97.2830396753558,95.07039483174503,20957,269,37098,4.635000460773683
지에스칼텍스(주) 신월주유소,서울특별시 강동구 양재대로 1323,37.5245352149831,127.134421461173,0.4744982038416472,0.180373504812951,0.1643868010382863,95.38061646392232,93.4935303860771,105516,273,23071,4.635564164923441
현대오일뱅크(주) 직영 연세주유소,서울특별시 연희로 184(연희동),37.5734779131892,126.935927536368,0.5081563336060964,0.1202945083181991,0.0780301578844897,88.64116412024711,85.86198403725373,42092,108,37428,4.635761318875122
㈜지유에너지 직영오렌지주유소,서울특별시 강동구 성안로 102,37.5323206515916,127.1330903311,0.5041180473436613,0.1072982078130674,0.2177179127879145,94.5089626242396,92.6245183769049,16228,273,23528,4.636456540439932
KH에너지㈜ 직영 성수만세주유소,서울특별시 성동구 왕십리로 109(성수동1가 656-1208),37.5474976267809,127.044350756633,0.5121953927842334,0.1306921265870113,0.0774622045465383,91.85099618422863,89.56711235730562,130255,69,12322,4.636521410725325
동일석유(주)황금충전소,서울특별시 중랑구 망우로 209,37.5941757814607,127.07594887553,0.5024300990693072,0.1391463410177236,0.1353590285267727,86.98752478593862,84.89351535375259,132385,59,24926,4.637194831506867
복지잠실충전소,서울특별시 송파구 삼전로 47 잠실복지충전소,37.5034949189958,127.086877565247,0.5035737950249579,0.14477590266505,0.1486299248864194,97.09499815189402,94.97248676838656,38760,241,28358,4.637759980905987
지에스칼텍스(주)홍제동주유소,서울특별시 통일로 372(홍제동),37.5835529130439,126.950101908476,0.5209670483987825,0.1369740827382929,0.1299848995840782,87.5089645259506,84.7967236805214,79640,108,13433,4.638844856347954
현대오일뱅크(주)직영양화교주유소,서울특별시 강서구 공항대로 653(염창동 283-4),37.5473388138282,126.877427656269,0.5083054934375666,0.2581411422123135,0.176088175995087,91.77682446317056,88.7402799278821,81224,265,41628,4.639080066006536
대흥에너지산업(주),서울특별시 강서구 곰달래로24길 19,37.5297844716161,126.847220516608,0.5202291061929655,0.2640787260698322,0.2610489800789077,93.9488646691556,90.79139285591388,22296,265,52647,4.639222747574113
서계주유소,서울특별시 용산구 청파로 367,37.5523662854224,126.968993700509,0.5209311972651733,0.1426170451778349,0.2647791817114625,90.9786129383454,88.34833231125687,19163,58,12338,4.639260978179046
방화대성주유소,서울특별시 강서구 양천로 176(마곡동 752),37.5728980859386,126.823440027913,0.5119426576023772,0.3523210740232858,0.1408243528052784,89.43352772406156,86.1567837437505,203027,265,34359,4.639399282373981
남서울(경복에너지),서울특별시 금천구 독산로 257 (독산동),37.469845191888,126.90243011308,0.5233186892711807,0.0758731078849313,0.0872451850163055,100.2323359696108,97.31368685410987,71681,64,27239,4.6470945093676335
삼미상사㈜ 북부주유소,서울특별시 도봉구 도봉로 437 (쌍문동),37.6449722642179,127.032158920343,0.5212348463942289,0.185957687637253,0.1654960074994801,80.98006082414149,78.70484616631799,46744,47,16934,4.647168266891216
㈜유턴상사유턴주유소,서울특별시 강서구 남부순환로 57(공항동 61-222),37.5572480682887,126.810028716951,0.5534843272803092,0.1735345319734281,0.3418007757967969,91.31270337785182,87.98930989531641,26957,265,30927,4.649439551481878
신흥에너지산업(주),서울특별시 은평구 수색로 199 신흥에너지산업,37.5789769418095,126.900319747164,0.5298660925104106,0.0820442582324299,0.1986247357325608,88.1439930367294,85.20164468951016,39064,134,13210,4.651189094559276
㈜삼표에너지 목동주유소,서울특별시 양천구 목동서로 129(목동),37.5321638279811,126.875540347599,0.5289168749176424,0.1629682200657377,0.1129529298422828,93.46876541114592,90.42821082396128,67316,126,40737,4.653098296592245
중앙주유소,서울특별시 서초구 바우뫼로 219 (양재동),37.481559699114,127.042231529687,0.5430954040245684,0.210647141521486,0.2959224022143125,99.129677843733,96.79638971275824,64381,236,42683,4.653992128009118
에너지플러스 허브 삼방,서울특별시 서초구 사평대로 364 (서초동),37.5037327208746,127.023195609704,0.5410539824763585,0.1465388470307353,0.2864179836332016,96.55705031531843,94.15239369750098,83560,236,34443,4.655222489773267
지에스칼텍스(주)남서울주유소,서울특별시 서초구 나루터로 83 (잠원동),37.5161552826768,127.018859270173,0.5322113151111254,0.1652427640000341,0.234808626213919,95.15755177841666,92.73964171717002,83560,236,26393,4.657122753532423
현대오일뱅크㈜ 직영강변주유소,서울특별시 용산구 원효로 9,37.5347144223748,126.945724077622,0.538978109171114,0.2237446034415405,0.1841972544972717,92.93175625170724,90.1940565396432,124183,186,21118,4.657968166470269
서울주유소,서울특별시 송파구 문정로 153(가락동),37.4932142265767,127.136397908655,0.5491695712866584,0.1453400482025444,0.240093337906078,98.83885769299836,96.9266997122501,85016,241,31670,4.674002213867242
㈜파랑에너지,서울특별시 동대문구 망우로 126(휘경동),37.5912276386517,127.067036460909,0.5510838811973795,0.0996492547827121,0.1211715517558607,87.21996172419442,85.0789264286048,132385,65,16339,4.67724420656351
노원교주유소,서울특별시 도봉구 마들로 776 (도봉동),37.679014779402,127.049750654086,0.5500589399121429,0.2017365620781297,0.0981200093422708,77.36761761816835,75.21792556265707,87685,47,26359,4.678941681242529
현대오일뱅크㈜직영 영등포현대셀프주유소,서울특별시 영등포구 경인로 822 (영등포동),37.5153291566595,126.904480819754,0.5505016741710923,0.325390720859991,0.1376029154437202,95.1811898544236,92.26572477348115,56196,177,30461,4.678959112786031
동일석유㈜ 창동주유소,서울특별시 도봉구 도봉로 434 (창동),37.644630640363,127.03270797948,0.5526835603704341,0.1299274895133209,0.2100863281631197,81.02192464168452,78.74935695973593,46744,47,16934,4.687810052836158
신광주유소,서울특별시 강북구 삼양로 484,37.6464495651764,127.015372603028,0.5600348061139809,0.1036196990675068,0.265741493470749,80.70540880882376,78.34240717090873,46744,41,20407,4.699878255878478
동서울고속주유소,서울특별시 동대문구 한천로 414(이문동),37.5975437366033,127.068038613189,0.5576275820155006,0.1674696853147063,0.1850339260144231,86.5335801813559,84.40321110239691,132385,65,20183,4.701334335534774
현대오일뱅크㈜ 직영 스피드 주유소 ,서울특별시 동대문구 천호대로 453(장안동),37.5612269362214,127.069417973378,0.574724778592764,0.2063408541934739,0.2988967904590399,90.55231147165333,88.39701761734685,47232,65,38677,4.706684505613475
광성주유소,서울특별시 강동구 올림픽로 673,37.5415768035116,127.124241977598,0.566796421463994,0.1296935565314194,0.225319474643205,93.36843129597904,91.45319925656732,16228,273,33825,4.707231473815518
복지강북충전소,서울특별시 도봉구 도봉로 430 (창동),37.6443707907391,127.032729054163,0.581302477693873,0.1029806604706493,0.1818520994821272,81.05081930093334,78.7781636438973,46744,47,16934,4.759090805426132
대성산업㈜동마장 주유소,서울특별시 동대문구 고산자로 405(용두동),37.5758650176352,127.037718750466,0.5809879905955128,0.0680816837724742,0.2292941579813089,88.66448630256284,86.36797970096349,38959,65,26484,4.759415969693813
㈜이케이에너지(주) 강산제2주유소,서울특별시 성북구 보국문로 52,37.6091774896632,127.010120328789,0.5814221687296303,0.2114111102816082,0.2083263811945109,84.8057168682393,82.39370116491106,168540,73,24911,4.761821407146667
대원주유소,서울특별시 중랑구 동일로 600(면목동),37.5838637303809,127.08019306795,0.5888345679315371,0.1663109783716015,0.0601899632910255,88.16956531014107,86.08673573158748,163728,59,24206,4.79699673780913
구로주유소,서울특별시 구로구 구로동로 137(구로동),37.4910179935409,126.883528041948,0.5968219791759772,0.0416150965497117,0.1846299582187467,97.97645929816068,94.97845707841772,28199,200,30093,4.8107802005982165
㈜중앙에너비스 동교지점,서울특별시 연희로 12(창천동),37.5598695838504,126.92684981646,0.5943413241444765,0.290069446164268,0.0641885014698134,90.16913861062731,87.3483134052776,85942,186,15603,4.81127055301543
SK에너지(주)드림랜드주유소,서울특별시 성북구 월계로 128,37.6166166995599,127.041411636405,0.5930705814539422,0.2220502587840291,0.1967034486453697,84.18646157111785,81.93757991966791,132385,41,16449,4.811760681418837
스마트위례주유소(셀프),서울특별시 송파구 위례중앙로 43(장지동),37.4754115621354,127.132286388636,0.6099444030017609,0.1887311657605918,0.5123594624952089,100.732684628525,98.78439070875103,118406,241,29102,4.8124020803709735
필동주유소,서울특별시 중구 퇴계로 196 (필동2가),37.5608896587695,126.993676318183,0.5975253165095528,0.3900304103007764,0.2294210677331917,90.0898072278708,87.5761693075735,21837,58,1912,4.813403726164821
지에스칼텍스(주) 수색뉴타운 주유소,서울특별시 은평구 수색로350 (수색동),37.5872268663294,126.887564092289,0.6125258149647047,0.3177551377520924,0.3899492199471315,87.29783438358443,84.29601328026085,65387,134,13210,4.859582609025074
서울숲충전소,서울특별시 성동구 왕십리로 124 (성수동1가),37.5488072181522,127.044854882958,0.6056128297230402,0.1652925798425692,0.2141050451684968,91.71001308634304,89.4293532711554,130255,69,12322,4.888681506287849
지에스칼텍스㈜ 삼성로주유소,서울특별시 강남구 삼성로 563 (삼성동),37.5118848636563,127.053592956974,0.6068554007041264,0.1685640238456408,0.2697201392966747,95.86016072798222,93.59507561782176,20957,269,31062,4.899803634661649
홍익에너지(주),서울특별시 송파구 석촌호수로 242 홍익에너지LPG주유소,37.5080647244607,127.103741467914,0.6169747429014784,0.2545424533112547,0.2352710005585499,96.78140960364908,94.73832888734424,102555,241,34143,4.9345783387715105
대교주유소,서울특별시 강남구 강남대로 640 (신사동),37.5189616357236,127.019429526732,0.619020259574339,0.4081160885111599,0.1115586161352427,94.84964020428212,92.43561806653716,224541,236,26393,4.937550396208149
SK에너지㈜대공원주유소 ,서울특별시 관악구 과천대로 921 (남현동 602-306),37.4726569973301,126.982228902725,0.6302742284803564,0.2745218605238279,0.1574497241606484,99.84631613852306,97.2545869876656,78555,78,18163,4.983796182981845
유한책임회사 동하석유 (힐탑주유소),서울특별시 강남구 논현로 640 (논현동),37.5107346951545,127.032734745238,0.6299804554505637,0.3376085732009307,0.3114298830017865,95.8380690292261,93.47919889549726,83560,269,22080,4.983796182981845
극동유화㈜ 항동주유소,서울특별시 구로구 서해안로 2154(항동),37.4834631961312,126.827816336243,0.635799014146449,0.290871695658101,0.4598374110084261,99.24239027365157,96.02715846478628,36665,200,38528,4.994848862855797
가든파이브주유소(셀프),서울특별시 송파구 탄천동로 740(장지동),37.4758375513871,127.12364117535,0.6500309105288088,0.3864515527781101,0.5168672636388488,100.57067798970424,98.58533907041016,118406,241,28841,5.0001164565667064
복지송파충전소,서울특별시 송파구 위례중앙로 37,37.4755154403755,127.13164827653,0.6509142324552865,0.243970360332292,0.5484509833640266,100.71259511166478,98.76163908238632,118406,241,29102,5.0001164565667064
신내주유소,서울특별시 중랑구 용마산로 705(신내동),37.6141617433809,127.100926646741,0.6541637356356896,0.1686829805368513,0.4246351852426315,85.09057431067835,83.14413741590653,53465,59,38205,5.02086378811011
경인고속주유소,서울특별시 강서구 국회대로 225(화곡4동 843-4),37.5296452344476,126.859834931985,0.6369217223173402,0.1323078118288503,0.1506828432551046,93.85962684569472,90.75422867423693,67316,265,17785,5.026613684920668
협진제유산업㈜ 동일주유소,서울특별시 성동구 광나루로 254(성수동2가 289-2),37.5485761967423,127.057911486572,0.6612078408106239,0.1207559945714081,0.1732872169602816,91.8421430881603,89.62244626935266,49392,69,12551,5.045923217056597
양천구주유소,서울특별시 양천구 국회대로 275(목동),37.5303725461437,126.865511835584,0.6600002739077028,0.2332777153454325,0.157452914765886,93.73633822965724,90.65429923508776,67316,265,20514,5.046498238791601
복지마곡충전소,서울특별시 강서구 양천로 200(마곡동),37.5727027510253,126.826111314009,0.6756210075579003,0.2066679855327165,0.3536107419536672,89.42515234760526,86.15978314294964,203027,265,34359,5.056148610181049
남정주유소,서울특별시 모래내로 243(남가좌동) ,37.5756715829004,126.925518366048,0.6644005599800388,0.2209737123200933,0.2719739192616032,88.41921181201619,85.59216360338218,39064,108,30508,5.056435221389576
(주)기지에너지,서울특별시 중랑구 용마산로 716(신내동),37.6147730910019,127.101943330314,0.6674652833288358,0.2811654809092845,0.3409671323521133,85.03706375520908,83.09656558079783,53465,59,38205,5.057149996160533
서울와사공업(주),서울특별시 강북구 도봉로 318 SK LPG 충전소,37.6362273361225,127.024542355478,0.6677932970094788,0.2197304567914887,0.287274200457691,81.89420492909414,79.57256325213497,46744,41,23778,5.057149996160533
㈜중앙에너비스 수서지점,서울특별시 강남구 광평로 202 (수서동),37.4840308926021,127.094990086002,0.6797330484171686,0.302265395584713,0.1966552471047735,99.326420474512,97.22373457848468,114268,269,23015,5.062072075026767
㈜한진 김포공항 제2주유소,서울특별시 강서구 하늘길 112 (공항동 1373),37.5587841523495,126.803355336745,0.6995567315083356,0.4627591195814329,0.466640489405139,91.2272962752554,87.87576933957146,26957,265,30927,5.079012194872479
서울석유(주)양재주유소,서울특별시 서초구 바우뫼로 178 (양재동),37.4780861398106,127.039597278471,0.7064006714125949,0.5308931147682575,0.643039090552067,99.49632936115844,97.1498247144482,63030,236,42683,5.08677277521334
SK에너지㈜ 군자동주유소,서울특별시 성동구 천호대로 446(용답동 236-1),37.560534180112,127.068301931583,0.6873379436931496,0.2905140594739935,0.3521085556788566,90.61783598680545,88.45664229931616,47232,65,38677,5.090640777276202
목화주유소,서울특별시 강서구 국회대로 251(화곡4동 785-2),37.5300548363879,126.862833597877,0.6916103186442831,0.2420441848945366,0.224410488079653,93.7913727966738,90.69828713773428,67316,265,20514,5.102258759603517
한남제3한강주유소 주식회사,서울특별시 용산구 한남대로 45,37.5328793337278,127.007511314705,0.721966880428915,0.2461069792792369,0.0970411958736988,93.24943253789344,90.78808069367336,18881,93,22054,5.167258651002585
현대오일뱅크㈜ 직영한남동주유소,서울특별시 용산구 한남대로 204,37.5460727912721,127.002896422503,0.743788582292359,0.1201157188144579,0.6028460180922669,91.76722096514132,89.29040070841349,50570,93,22054,5.2209067054273985
활주로충전소,서울특별시 강서구 방화대로 26,37.5428873943464,126.817079251616,0.7431518984430598,0.6960088219788775,0.6829099846413135,92.80897633744878,89.5224380283658,26957,265,30927,5.221368738524459
지에스칼텍스㈜국회대로주유소,서울특별시 영등포구 국회대로 746 (여의도동),37.5279887278673,126.916029127951,0.7439599192816625,0.2673233880825622,0.840605288426629,93.7356726787639,90.8682778746211,54617,177,32923,5.2231010419327255
세원주유소,서울특별시 성동구 광나루로 184(성수동1가 13-11),37.5508602334419,127.050436462226,0.750523489800115,0.2934304751179445,0.079941249657639,91.5269475558529,89.2738392954555,49392,69,14082,5.242133092452311
현대오일뱅크㈜ 산성셀프주유소,서울특별시 강남구 헌릉로 730(세곡동),37.466556801977,127.119065437775,1.2112159324109015,0.7911679966821809,0.6907038426062013,101.53145564562472,99.5177984848668,118406,269,43382,5.248028260121585
대성산업(주)동부충전소,서울특별시 성동구 광나루로 200,37.5504585080032,127.052436623433,0.7652387061699393,0.131130676631229,0.211943051384097,91.58772013987738,89.34371480007378,49392,69,12551,5.249400273056092
(주)삼표에너지 김포충전소,서울특별시 강서구 오정로 390,37.5381134205516,126.798145355691,2.205991635066799,2.2400287434050745,2.4030885811683595,93.56404462244694,90.2044889730462,26957,265,30927,5.249537085804939
에스제이오일㈜ 여의도주유소,서울특별시 영등포구 은행로 64 (여의도동),37.5303763828993,126.925570104479,0.9663472796542796,0.2119999296383026,0.5692075217867594,93.44438149084142,90.61817944717208,43772,177,32923,5.2497039041019375
KH에너지㈜ 직영 KH여의도주유소,서울특별시 영등포구 국회대로 794 (여의도동),37.5307392906414,126.920299416937,1.1304014389254209,0.2144799288969418,0.9764153042941884,93.41781212465769,90.56872807447978,43772,177,32923,5.2497039041019375
(주)에이치앤디이 서울만남의광장주유소,서울특별시 서초구 양재대로12길 73-71 (원지동),37.4596446385464,127.042624862658,1.2903569027890602,0.6748938004054978,0.7558642907136784,101.557455766851,99.21398804791454,231970,236,21766,5.249921992215687
(주)에이치앤디이-서울만남의광장,서울특별시 서초구 양재대로12길 73-71 만남의광장,37.4596446385464,127.042624862658,1.2903569027890602,0.6748938004054978,0.7558642907136784,101.557455766851,99.21398804791454,231970,236,21766,5.249921992215687
㈜보성 세곡주유소,서울특별시 강남구 헌릉로 731 (세곡동),37.4672717183911,127.118742598267,1.2000607273766826,0.7366846543921318,0.678122460621412,101.44886352974736,99.43446925738208,118406,269,43382,5.249921992215687
KH에너지㈜직영KH외발산주유소,서울특별시 강서구 외발산동 379 외 5번지,37.5435195288267,126.816842910171,0.8078416218558494,0.6946557309472726,0.6581723107635236,92.74211022487196,89.45426980435148,26957,265,36236,5.249921992215687
자곡셀프주유소,서울특별시 강남구 밤고개로 120 (자곡동),37.4835336870413,127.104011797711,0.7684381952685447,0.4275875193320889,0.2283036403226673,99.48296960808844,97.41923756958,114268,269,14402,5.256879710635811
대영가스 충전소,서울특별시 강서구 양천로 242 A동(충전소사무동),37.5722554496261,126.830979217067,0.7902853817669911,0.34329779456079,0.2890599185406156,89.42154918744983,86.17701819670158,56170,265,34359,5.2623942208719905
태건석유(주)양재최고주유소,서울특별시 서초구 매헌로 72 (양재동),37.4671915776126,127.034715543613,0.7920721970862971,0.2433580159074801,0.1167980716664993,100.6710893496534,98.29815309134788,231970,236,21766,5.2624760998487625
완불주유소(셀프),서울특별시 송파구 송파대로 3(장지동),37.4711645321762,127.126135074857,1.0576591502290922,0.7569245050466241,0.1519191268005893,101.11622658250698,99.1372345249694,118406,241,28841,5.263783118366954
대신석유(주) 대우주유소,서울특별시 서초구 양재대로 173 (양재동),37.4628348082628,127.037147595122,1.0317462347547808,0.270119917925202,0.4190372012818109,101.16862194330632,98.80376049619288,231970,236,21766,5.264009320714047
에너지플러스 허브 GS타워,서울특별시 강남구 논현로 516 (역삼동),37.5027340222428,127.036487434295,1.044307976385588,0.1521632023858707,0.3063129511180538,96.74784895054174,94.40122412822744,20957,269,35556,5.265493496190819
유림주유소,서울특별시 관악구 신림로 176 (서림동 112-47),37.4737677035222,126.934825612186,0.2597126092150006,0.0759745761438493,0.2630258644363949,99.7077468359385,96.92000450044463,0,78,23511,6.17210392478735
현대주유소,서울특별시 관악구 난곡로 108 (난향동 666-14),37.464972344929,126.919665854693,0.2660614560848643,0.0715240252252877,0.4032437369110752,100.7153228993521,97.8661335023964,0,78,26679,6.172818089167374
대양석유㈜보라매주유소,서울특별시 관악구 보라매로 26 (보라매동 729-4),37.4915977369262,126.927219042514,0.3206502203660834,0.1172541518355321,0.2909220067444027,97.74318003673866,94.924305207955,0,128,22445,6.175986429231074
수도에너지(주)동서울충전소,서울특별시 동대문구 망우로 57,37.5896352280447,127.059464803335,0.3467145704398199,0.0961050569328642,0.3527887584908321,87.32272679926905,85.14283422731904,0,65,21366,6.176252825868492
케이와이에너지(주)신림충전소,서울특별시 관악구 신림로 170(신림동),37.4735314984492,126.934085115589,0.2907069067495397,0.0961671650514944,0.2276055358655142,99.73510071284988,96.94432217820834,0,78,23511,6.220851752681025
난곡주유소,서울특별시 관악구 난곡로 206 (난곡동 616-1),37.4734402319402,126.918756804906,0.4197392936774574,0.0978954631505168,0.2174813933002705,99.77840709747628,96.92521301249704,0,78,30662,6.2242820206731935
㈜지에스이앤알 평창주유소,서울특별시 종로구 평창문화로 135(평창동)  ,37.609738479959,126.974559174167,0.7362040415821722,0.0687352318485672,0.1869818160800824,84.62047404009488,82.03181807543461,0,79,17858,6.263005717335589
SK북악주유소,서울특별시 종로구 평창문화로137(평창동)    ,37.6098529710689,126.974864699167,0.7654316009396808,0.0666169182797038,0.1859407584235822,84.60833675620911,82.02122424878205,0,79,17858,6.263005717335589
㈜엠오티이엔지직영삼화주유소,서울특별시 관악구 보라매로 41 (보라매동 726-10),37.4932228170481,126.926674571544,0.4708852073089162,0.1029382822962177,0.1650868222257066,97.56405271270889,94.74290382010126,0,128,22445,6.276197009462173
현대오일뱅크(주)직영고대셀프주유소,서울특별시 성북구 종암로 12,37.5914409003495,127.036697935025,0.3635707562674938,0.1326238415409645,0.1738457039602587,86.93419355870192,84.64328882972394,0,73,40111,6.280589353047267
㈜명연에너지 효성주유소,서울특별시 성북구 화랑로 27,37.6031889817123,127.035329356198,0.5514370670753752,0.1037463452861936,0.1353664737490174,85.62475858867522,83.33523810159059,0,73,26169,6.293392564067574
㈜오만불 신동방주유소,서울특별시 성북구 월계로 84,37.6134035526037,127.038057325252,0.1996383748728372,0.11625248552508,0.1522482077789822,84.5154915604835,82.24709989678655,0,41,29910,6.339703369583957
신관주유소,서울특별시 관악구 신림로 290 (서원동 1641-58),37.4804197429151,126.930668720985,0.3355211136295979,0.1955835454975703,0.2716012063235077,98.9765833556754,96.1719288643544,0,78,23511,6.377372611976597
대성산업㈜청량리주유소,서울특별시 동대문구 왕산로 289(청량리동),37.5864699557701,127.0516032116,0.2125935764328921,0.2268287178798936,0.1958120202610074,87.60203837448213,85.38084980911144,0,65,13536,6.68189205821185
㈜홍릉주유소,서울특별시 동대문구 홍릉로 87(청량리동),37.5880092172875,127.042553030596,0.2539700430966725,0.2485100128251212,0.0955944904356016,87.35789357636229,85.09338336741745,0,65,19094,7.018653043190708
(주)중앙에너비스 종암지점,서울특별시 성북구 종암로 58,37.5957716397164,127.03600774664,0.1523127603543453,0.3524160813695828,0.2125104893690008,86.45013651446052,84.15881637247611,0,73,40111,7.053873266465416
시몬주유소,서울특별시 관악구 남부순환로 1753 (은천동 912-15),37.4823319566643,126.945066314768,0.2652851064293028,0.2521066526366766,0.2297582470098818,98.74582040293812,96.00077512591145,0,78,33156,7.081558696864339
현대오일뱅크㈜직영관악셀프주유소,서울특별시 관악구 남부순환로 1520 (미성동 1571-8),37.4824162018976,126.919452148531,0.143585238311949,0.281781980938275,0.3949138776591871,98.7807658079866,95.93003840115244,0,78,24719,7.112713850394756
한영주유소 ,서울특별시 동대문구 망우로 38(휘경동),37.5884253186329,127.057395478312,0.3071366011003037,0.2533499604042091,0.251391718547482,87.43726033668749,85.24615012546879,0,65,13536,7.157056657276583
구도일주유소 특종,서울특별시 종로구 평창문화로 90(평창동)     ,37.6067119673896,126.971046593297,0.2981488430060811,0.2548716113033361,0.3943628939639712,84.95042515785,82.34359836344983,0,79,17858,7.2232752799330395
장위주유소,서울특별시 성북구 화랑로 110,37.6034637786359,127.043444018874,0.5772339419675299,0.2940981574690134,0.2550251983919996,85.65654846879144,83.40789488057996,0,73,19739,7.321731926660646
안풍주유소,서울특별시 종로구 자하문로 303(홍지동) ,37.5992096931325,126.959167834981,0.2560939201076434,0.4299149418392234,0.4310190496028793,85.77148226236842,83.10504095652088,0,79,9536,7.323166715931168
자하문주유소,서울특별시 종로구 자하문로 248(부암동),37.5963008098912,126.964348123069,0.815781471350869,0.5903673191473592,0.1418311586725245,86.09776971130455,83.45571904683355,0,79,9536,7.336415746927851
(주)홍릉가스충전소,서울특별시 동대문구 회기로 44 ,37.5911339702017,127.041480734822,0.4968132414292093,0.3422905612438873,0.3601022281366557,87.00410091665613,84.73656495968126,0,73,40111,7.401659214366287
